~VERSION INFORMATION
 VERS.                 2.0:   CWLS Log Ascii Standard    
 WRAP.                 YES:   Multiple Lines per Depth   
~WELL INFORMATION
#MNEM.UNIT              DATA                DESCRIPTION OF MNEMONIC  
#---------              ----                -----------------------  
 STRT  .FT         4700.0000                :Top Depth  
 STOP  .FT         5740.0000                :Bottom Depth  
 STEP  .FT             .5000                :Increment  
 NULL  .          -99999.000                :Null Value  
 COMP  .  Threshold Development             :Company   
 FLD   .  WILDCAT                           :Field  
 STAT  .  TEXAS                             :State  
 SRVC  .  SCHLUMBERGER                      :Service Company  
 WELL  .  B YATES 18D                       :Well  
 UWI   .  422373813000                      :Unique Well ID  
~PARAMETER INFORMATION
#MNEM.UNIT        Value       Description                
#---------    -------------   -------------------------- 
 RUN   .                 1:   Run Number                 
 DATUM .FT       1040.0000:   Datum                      
 AMST  .DEG.F      80.0000:   Annual Mean Surface Temp.  
 BHT   .DEG.F     137.0000:   Bottom Hole Temperature    
 TD    .FT       5750.0000:   Loggers Total Depth        
 BITSIZ.IN          7.8750:   Bit Size                   
 MW    .LB/USGAL    9.3000:   Mud Weight                 
 RM    .OHM-M       3.7400:   Mud Resistivity            
 RMMT  .DEG.F      70.0000:   Mud Resistivity Meas. Temp.
 RMF   .OHM-M       3.1800:   Mud Filtrate Resistivity   
 RMFMT .DEG.F      70.0000:   Mud Filtrate Res.Meas.Temp.
 RMC   .OHM-M       5.6100:   Mud Cake Resistivity       
 RMCMT .DEG.F      70.0000:   Mud Cake Res. Meas. Temp.  
 RW    .OHM-M        .0539:   Formation Water Resistivity
 RWMT  .DEG.F      75.0000:   Formation Water Res.M.Temp.
 SALFM .PPM      150000.00:   Formation Water Salinity   
~CURVE INFORMATION
#MNEM.UNIT       API Code     Curve Description          
#---------    -------------   -------------------------- 
 DEPTH .FT                    : Depth                                   
 CALI  .INS                   : Caliper (from density)                  
 DLT   .US/FT                 : Borehole Compensated Sonic Travel Time  
 GR    .API                   : Gamma Ray                               
 RILD  .OHMM                  : Deep Induction Resistivity              
 RILM  .OHMM                  : Medium Induction Resistivity            
 MINV  .OHMM                  : Microlog Inverse Resistivity            
 MNOR  .OHMM                  : Microlog Normal Resistivity             
 NPHI  .PU                    : Compensated Neutron (Limestone)         
 PEF   .B/E                   : Photoelectric Effect                    
 RHOB  .G/CC                  : Formation Density Compensated           
 RSFL  .OHMM                  : Spherically Focused Resitivity          
 SFLU  .OHMM                  : Spherically Focused Resitivity (Unaveraged)
 SP    .MV                    : Spontaneous Potential                   
~A Log Data Section - Number of Curves =    14
# ...
 5723.0000
     7.829700    62.400002  -99999.0000    31.056000    35.537899     6.391400
     1.904500  -99999.0000     2.638546     2.560648    34.935001    34.934799
   -41.945568                                                                 
 5723.5000
     7.836800  -99999.0000  -99999.0000    31.335100    42.086201     6.397000
     1.904500  -99999.0000     2.682446     2.552738    54.750999    54.751099
   -44.544174                                                                 
 5724.0000
     7.814500  -99999.0000  -99999.0000    31.596500    45.892101     6.397000
     1.919500  -99999.0000     2.591668     2.547901    96.657997    96.658096
   -48.095932                                                                 
 5724.5000
     7.792400  -99999.0000  -99999.0000    33.334900    48.271400     6.397000
     1.926900  -99999.0000     2.548706     2.546880   136.759995   136.759598
   -51.749813                                                                 
 5725.0000
     7.768900  -99999.0000  -99999.0000    37.654400    48.216000     6.385800
     1.926900  -99999.0000     2.520457     2.550548   136.776001   136.776199
   -53.769718                                                                 
 5725.5000
     7.792400  -99999.0000  -99999.0000    39.224201    48.204399     6.369000
     1.934400  -99999.0000     2.508291     2.542866   115.602997   115.603401
   -55.823662                                                                 
 5726.0000
     7.855100  -99999.0000  -99999.0000    38.878799    47.426601     6.369000
     1.941900  -99999.0000     2.583584     2.536692    95.698997    95.699303
   -57.196781                                                                 
 5726.5000
     7.872300  -99999.0000  -99999.0000    38.969799    46.061199     6.391400
     1.941900  -99999.0000     2.669657     2.532202    77.055000    77.055496
   -58.263535                                                                 
 5727.0000
     7.870300  -99999.0000  -99999.0000    38.530998    44.924500     6.430600
     1.949400  -99999.0000     2.732335     2.527182    63.722000    63.722500
   -58.411171                                                                 
 5727.5000
     7.852300  -99999.0000  -99999.0000    37.458099    43.649200     6.430600
     1.949400  -99999.0000     2.821500     2.528698    60.993999    60.994301
   -58.218395                                                                 
 5728.0000
     7.844900  -99999.0000  -99999.0000    37.392899    43.092899     6.430600
     1.949400  -99999.0000     2.899947     2.538550    68.209999    68.209702
   -57.685211                                                                 
 5728.5000
     7.837500  -99999.0000  -99999.0000    38.301899    43.238098     6.430600
     1.949400  -99999.0000     2.839497     2.550854    75.689003    75.689102
   -58.071136                                                                 
 5729.0000
     7.861800  -99999.0000  -99999.0000    38.934898    44.335899     6.430600
     1.949400  -99999.0000     2.803147     2.555525    77.220001    77.219704
   -58.423023                                                                 
 5729.5000
     7.870800  -99999.0000  -99999.0000    40.201302    46.168800     6.430600
     1.949400  -99999.0000     2.712627     2.562944    75.314003    75.313904
   -57.413258                                                                 
 5730.0000
     7.870300  -99999.0000  -99999.0000    41.082001    47.462299     6.430600
     1.949400  -99999.0000     2.603301     2.568009    73.139999    73.140404
   -56.573704                                                                 
 5730.5000
     7.852300  -99999.0000  -99999.0000    41.870701    49.039902     6.430600
     1.949400  -99999.0000     2.573774     2.570135    72.093002    72.093102
   -55.053322                                                                 
 5731.0000
     7.870300  -99999.0000  -99999.0000    42.344101    50.768002     6.430600
     1.949400  -99999.0000     2.574178     2.572192    74.852997    74.852699
   -53.771229                                                                 
 5731.5000
     7.850100  -99999.0000  -99999.0000    42.543999    53.482201     6.430600
     1.949400  -99999.0000     2.616832     2.571390    83.669998    83.669601
   -54.327362                                                                 
 5732.0000
     7.822200  -99999.0000  -99999.0000    44.208199    55.757000     6.430600
     1.949400  -99999.0000     2.791715     2.579804    97.487999    97.488098
   -54.577122                                                                 
 5732.5000
     7.832300  -99999.0000  -99999.0000    47.878399    57.699799     6.430600
     1.949400  -99999.0000     3.044626     2.602510   113.075996   113.075996
   -57.005520                                                                 
 5733.0000
     7.824600  -99999.0000  -99999.0000    47.316799    61.160900     6.430600
     1.949400  -99999.0000     3.157279     2.625862   115.155998   115.155998
   -56.404251                                                                 
 5733.5000
     7.801900  -99999.0000  -99999.0000    38.364201    55.762001     6.430600
     1.949400  -99999.0000     3.328187     2.631209   103.917999   103.917503
   -53.386059                                                                 
 5734.0000
     7.789200  -99999.0000  -99999.0000    23.778700    43.019600     6.430600
     1.949400  -99999.0000     3.355788     2.622482    90.801003    90.801201
   -50.129578                                                                 
 5734.5000
     7.803600  -99999.0000  -99999.0000    15.716600    26.067200     6.430600
     1.949400  -99999.0000     3.294388     2.592351    87.516998    87.516502
   -46.022064                                                                 
 5735.0000
     7.890600  -99999.0000  -99999.0000    12.164300    16.632401     6.430600
     1.949400  -99999.0000     3.190361     2.577235    77.702003    77.702003
   -42.935787                                                                 
 5735.5000
     7.923200  -99999.0000  -99999.0000    10.572100    10.876300     6.430600
     1.949400  -99999.0000     3.190784     2.582697    42.058998    42.059101
   -40.223965                                                                 
 5736.0000
     7.991900  -99999.0000  -99999.0000     9.789600     8.364500     6.430600
     1.949400  -99999.0000     3.117221     2.592543    18.142000    18.142200
   -37.852554                                                                 
 5736.5000
     7.956700  -99999.0000  -99999.0000     9.314300     7.619400     6.430600
     1.949400  -99999.0000     3.171563     2.602515     7.782000     7.782100
   -36.842793                                                                 
 5737.0000
     7.910800  -99999.0000  -99999.0000     9.171200     7.665400     6.430600
     1.949400  -99999.0000     3.288084     2.610818     8.026000     8.026500
  -99999.0000                                                                 
 5737.5000
     7.870800  -99999.0000  -99999.0000     9.139400     8.004400     6.430600
     1.949400  -99999.0000     3.335778     2.615415    10.516000    10.516100
  -99999.0000                                                                 
 5738.0000
     7.865200  -99999.0000  -99999.0000     9.134400     8.517800     6.430600
     1.949400  -99999.0000     3.319634     2.624654    13.131000    13.131100
  -99999.0000                                                                 
 5738.5000
     7.867900  -99999.0000  -99999.0000     9.132600     9.892200     6.430600
     1.949400  -99999.0000     3.267792     2.625092    14.878000    14.878000
  -99999.0000                                                                 
 5739.0000
     7.844100  -99999.0000  -99999.0000     9.122900    11.893800     6.430600
     1.949400  -99999.0000     3.264367     2.622717  -99999.0000    16.758301
  -99999.0000                                                                 
