~VERSION INFORMATION
 VERS.                 2.0:   CWLS Log Ascii Standard    
 WRAP.                 YES:   Multiple Lines per Depth   
~WELL INFORMATION
#MNEM.UNIT              DATA                DESCRIPTION OF MNEMONIC  
#---------              ----                -----------------------  
 STRT  .FT         4700.0000                :Top Depth  
 STOP  .FT         5740.0000                :Bottom Depth  
 STEP  .FT             .5000                :Increment  
 NULL  .          -99999.000                :Null Value  
 COMP  .  Threshold Development             :Company   
 FLD   .  WILDCAT                           :Field  
 STAT  .  TEXAS                             :State  
 SRVC  .  SCHLUMBERGER                      :Service Company  
 WELL  .  B YATES 18D                       :Well  
 UWI   .  422373813000                      :Unique Well ID  
~PARAMETER INFORMATION
#MNEM.UNIT        Value       Description                
#---------    -------------   -------------------------- 
 RUN   .                 1:   Run Number                 
 DATUM .FT       1040.0000:   Datum                      
 AMST  .DEG.F      80.0000:   Annual Mean Surface Temp.  
 BHT   .DEG.F     137.0000:   Bottom Hole Temperature    
 TD    .FT       5750.0000:   Loggers Total Depth        
 BITSIZ.IN          7.8750:   Bit Size                   
 MW    .LB/USGAL    9.3000:   Mud Weight                 
 RM    .OHM-M       3.7400:   Mud Resistivity            
 RMMT  .DEG.F      70.0000:   Mud Resistivity Meas. Temp.
 RMF   .OHM-M       3.1800:   Mud Filtrate Resistivity   
 RMFMT .DEG.F      70.0000:   Mud Filtrate Res.Meas.Temp.
 RMC   .OHM-M       5.6100:   Mud Cake Resistivity       
 RMCMT .DEG.F      70.0000:   Mud Cake Res. Meas. Temp.  
 RW    .OHM-M        .0539:   Formation Water Resistivity
 RWMT  .DEG.F      75.0000:   Formation Water Res.M.Temp.
 SALFM .PPM      150000.00:   Formation Water Salinity   
~CURVE INFORMATION
#MNEM.UNIT       API Code     Curve Description          
#---------    -------------   -------------------------- 
 DEPTH .FT                    : Depth                                   
 CALI  .INS                   : Caliper (from density)                  
 DLT   .US/FT                 : Borehole Compensated Sonic Travel Time  
 GR    .API                   : Gamma Ray                               
 RILD  .OHMM                  : Deep Induction Resistivity              
 RILM  .OHMM                  : Medium Induction Resistivity            
 MINV  .OHMM                  : Microlog Inverse Resistivity            
 MNOR  .OHMM                  : Microlog Normal Resistivity             
 NPHI  .PU                    : Compensated Neutron (Limestone)         
 PEF   .B/E                   : Photoelectric Effect                    
 RHOB  .G/CC                  : Formation Density Compensated           
 RSFL  .OHMM                  : Spherically Focused Resitivity          
 SFLU  .OHMM                  : Spherically Focused Resitivity (Unaveraged)
 SP    .MV                    : Spontaneous Potential                   
~A Log Data Section - Number of Curves =    14
# ...
 5046.5000
     8.585100    84.500000   120.839539     5.450400     6.163100     9.123400
     5.336600    24.851444     3.790562     2.646990     9.841000     9.841400
   -13.390943                                                                 
 5047.0000
     8.600300    84.900002   114.922600     5.364000     5.996100     8.574800
     5.149300    24.033751     3.759767     2.632930     9.304000     9.303900
   -13.409688                                                                 
 5047.5000
     8.641900    82.599998   114.299782     5.188200     5.610400     7.376900
     4.639700    22.495468     3.693341     2.615779     8.733000     8.733000
   -13.258226                                                                 
 5048.0000
     8.636300    86.199997   118.316406     4.962600     5.209400     5.994300
     3.905400    22.597021     3.640687     2.584406     7.696000     7.695700
   -13.583343                                                                 
 5048.5000
     8.698000    87.300003   120.566948     4.758500     4.786000     4.628400
     3.433300    25.973368     3.437083     2.553430     5.948000     5.948400
   -14.589285                                                                 
 5049.0000
     8.867800    89.000000   119.063316     4.640000     4.515100     3.245800
     3.043700    30.423800     3.209549     2.532527     5.278000     5.277600
   -15.425018                                                                 
 5049.5000
     9.615400    89.500000   114.733932     4.539300     4.543300     2.540500
     2.908800    32.857910     3.158002     2.506487     5.096000     5.095600
   -16.601164                                                                 
 5050.0000
     9.834900    87.800003   109.147629     4.492500     4.639100     2.809200
     3.051200    32.231251     3.206075     2.500138     5.339000     5.338600
   -17.368816                                                                 
 5050.5000
     9.749700    83.900002   104.717178     4.439100     4.887300     3.385700
     3.425900    29.258095     3.294742     2.536414     5.684000     5.683600
   -17.932220                                                                 
 5051.0000
     9.588000    85.699997   102.950630     4.359700     5.086900     5.686400
     4.190200    26.507215     3.413825     2.567800     6.552000     6.552500
   -17.542473                                                                 
 5051.5000
     9.208700    84.099998   103.717842     4.316100     5.015300     7.225800
     4.587300    25.853907     3.585283     2.582383     7.894000     7.894500
   -17.391012                                                                 
 5052.0000
     8.923800    84.800003   109.004539     4.294400     4.617700     5.512900
     4.377500    27.956602     3.661720     2.579313     7.761000     7.761200
   -17.682087                                                                 
 5052.5000
     9.016800    87.400002   109.783913     4.280600     4.392600     3.441700
     3.568200    30.369530     3.644162     2.545410     6.794000     6.794400
   -17.802956                                                                 
 5053.0000
     9.492600    90.699997   113.717125     4.285600     4.354700     2.937900
     3.058700    31.372345     3.626460     2.498446     5.397000     5.397400
   -17.991909                                                                 
 5053.5000
     9.801800    86.199997   117.602516     4.266300     4.333700     3.234600
     3.081200    32.070225     3.537078     2.461296     4.853000     4.852800
   -18.078735                                                                 
 5054.0000
     9.650000    90.800003   119.461815     4.205200     4.225600     3.357800
     3.223500    33.072205     3.400120     2.429198     4.647000     4.646500
   -18.131523                                                                 
 5054.5000
     9.644700    90.400002   117.350151     4.203500     4.183400     3.139500
     3.088600    33.994179     3.296667     2.385299     4.821000     4.820800
   -18.218349                                                                 
 5055.0000
     9.750500    87.800003   109.273010     4.322100     4.300500     3.010700
     3.088600    32.141769     3.230112     2.341491     4.883000     4.883400
   -18.237095                                                                 
 5055.5000
    10.015400    88.599998   105.348267     4.495100     4.584000     3.229000
     3.283500    27.802412     3.074297     2.355259     4.961000     4.960900
   -18.392008                                                                 
 5056.0000
     9.822100    86.199997   107.316330     4.662700     5.001100     5.227400
     4.190200    24.327345     3.013731     2.414927     5.625000     5.625200
   -18.615000                                                                 
 5056.5000
     9.246400    84.000000   116.767136     4.851300     5.303600     5.781600
     4.729700    25.633358     3.078002     2.473238     6.468000     6.468400
   -19.961351                                                                 
 5057.0000
     8.695100    82.300003   125.362747     5.141400     5.288100     4.460500
     4.265100    29.781561     3.114609     2.500256     7.848000     7.847800
   -21.477909                                                                 
 5057.5000
     9.297300    85.599998   126.692566     5.370500     5.323500     3.061100
     3.425900    32.497509     3.121427     2.481405     7.647000     7.647100
   -22.756180                                                                 
 5058.0000
     9.734100    86.800003   124.262321     5.659300     5.529000     2.854000
     2.998700    32.959373     3.142185     2.454452     7.245000     7.245100
   -23.591915                                                                 
 5058.5000
     9.827200    85.599998   124.482071     5.906000     5.773300     2.562900
     2.646600    30.923906     3.197170     2.456662     6.739000     6.738500
   -23.882990                                                                 
 5059.0000
     9.861600    87.800003   125.409317     5.910900     5.897000     2.708400
     2.586600    29.464062     3.261064     2.462600     6.914000     6.914300
   -24.480434                                                                 
 5059.5000
    10.207900    89.000000   122.374832     5.776300     5.893500     2.993900
     2.759000    31.023788     3.255953     2.470040     7.059000     7.058900
   -24.533220                                                                 
 5060.0000
    10.156700    88.300003   114.932571     5.633700     5.826000     2.881900
     2.654000    33.520821     3.119741     2.478155     7.510000     7.509800
   -24.449844                                                                 
 5060.5000
    10.221100    89.699997   112.184303     5.510900     5.797800     2.602100
     2.406800    34.873352     2.949507     2.460994     7.757000     7.757000
   -23.685642                                                                 
 5061.0000
    10.242900    88.699997   116.441780     5.449800     5.763000     2.557300
     2.369300    34.761093     2.831985     2.411717     7.420000     7.419700
   -22.819317                                                                 
 5061.5000
    10.293900    86.800003   124.644081     5.495000     5.728600     2.697200
     2.549100    35.593513     2.783487     2.363256     6.905000     6.904700
   -21.952990                                                                 
 5062.0000
    10.345100    88.900002   131.546112     5.565000     5.822700     2.814800
     2.751500    35.553329     2.768494     2.354161     6.190000     6.190300
   -20.576048                                                                 
 5062.5000
    10.212500    90.099998   138.705109     5.632500     6.109700     3.671200
     3.418400    32.476307     2.814611     2.364057     5.880000     5.880100
   -19.743763                                                                 
