~VERSION INFORMATION
 VERS.                 2.0:   CWLS Log Ascii Standard    
 WRAP.                 YES:   Multiple Lines per Depth   
~WELL INFORMATION
#MNEM.UNIT              DATA                DESCRIPTION OF MNEMONIC  
#---------              ----                -----------------------  
 STRT  .FT         4700.0000                :Top Depth  
 STOP  .FT         5740.0000                :Bottom Depth  
 STEP  .FT             .5000                :Increment  
 NULL  .          -99999.000                :Null Value  
 COMP  .  Threshold Development             :Company   
 FLD   .  WILDCAT                           :Field  
 STAT  .  TEXAS                             :State  
 SRVC  .  SCHLUMBERGER                      :Service Company  
 WELL  .  B YATES 18D                       :Well  
 UWI   .  422373813000                      :Unique Well ID  
~PARAMETER INFORMATION
#MNEM.UNIT        Value       Description                
#---------    -------------   -------------------------- 
 RUN   .                 1:   Run Number                 
 DATUM .FT       1040.0000:   Datum                      
 AMST  .DEG.F      80.0000:   Annual Mean Surface Temp.  
 BHT   .DEG.F     137.0000:   Bottom Hole Temperature    
 TD    .FT       5750.0000:   Loggers Total Depth        
 BITSIZ.IN          7.8750:   Bit Size                   
 MW    .LB/USGAL    9.3000:   Mud Weight                 
 RM    .OHM-M       3.7400:   Mud Resistivity            
 RMMT  .DEG.F      70.0000:   Mud Resistivity Meas. Temp.
 RMF   .OHM-M       3.1800:   Mud Filtrate Resistivity   
 RMFMT .DEG.F      70.0000:   Mud Filtrate Res.Meas.Temp.
 RMC   .OHM-M       5.6100:   Mud Cake Resistivity       
 RMCMT .DEG.F      70.0000:   Mud Cake Res. Meas. Temp.  
 RW    .OHM-M        .0539:   Formation Water Resistivity
 RWMT  .DEG.F      75.0000:   Formation Water Res.M.Temp.
 SALFM .PPM      150000.00:   Formation Water Salinity   
~CURVE INFORMATION
#MNEM.UNIT       API Code     Curve Description          
#---------    -------------   -------------------------- 
 DEPTH .FT                    : Depth                                   
 CALI  .INS                   : Caliper (from density)                  
 DLT   .US/FT                 : Borehole Compensated Sonic Travel Time  
 GR    .API                   : Gamma Ray                               
 RILD  .OHMM                  : Deep Induction Resistivity              
 RILM  .OHMM                  : Medium Induction Resistivity            
 MINV  .OHMM                  : Microlog Inverse Resistivity            
 MNOR  .OHMM                  : Microlog Normal Resistivity             
 NPHI  .PU                    : Compensated Neutron (Limestone)         
 PEF   .B/E                   : Photoelectric Effect                    
 RHOB  .G/CC                  : Formation Density Compensated           
 RSFL  .OHMM                  : Spherically Focused Resitivity          
 SFLU  .OHMM                  : Spherically Focused Resitivity (Unaveraged)
 SP    .MV                    : Spontaneous Potential                   
~A Log Data Section - Number of Curves =    14
# ...
 4980.5000
     8.813800    77.500000   112.250359     6.319500     6.749300     5.037100
     5.111800    28.068924     2.880122     2.504474     8.030000     8.030000
   -17.378637                                                                 
 4981.0000
     8.906100    78.800003   107.563271     6.346200     6.766300     4.337400
     4.819600    27.786482     2.776164     2.525244     7.881000     7.880600
   -17.533731                                                                 
 4981.5000
     9.073200    78.900002   108.622658     6.369700     6.819000     3.654500
     4.474900    29.291113     2.861138     2.552826     7.426000     7.426400
   -17.722870                                                                 
 4982.0000
     9.355700    81.599998   109.957596     6.399800     6.821400     3.559300
     4.212600    28.663750     2.901344     2.594044     7.212000     7.212000
   -17.537554                                                                 
 4982.5000
     9.430800    78.199997   118.985901     6.413400     6.846100     3.727200
     4.160200    31.742851     3.028979     2.603137     7.122000     7.122300
   -16.943741                                                                 
 4983.0000
     9.350600    79.900002   124.810722     6.421900     6.970000     3.559300
     4.362500    29.786835     3.100097     2.546201     7.542000     7.541600
   -16.724382                                                                 
 4983.5000
     9.244200    78.099998   121.990219     6.433400     7.134300     3.352200
     4.137700    31.063318     3.223018     2.551461     7.623000     7.623000
   -16.505026                                                                 
 4984.0000
     9.430800    79.300003   117.090576     6.410900     7.105000     3.189800
     4.040300    27.426502     3.232325     2.553744     8.067000     8.067200
   -16.626080                                                                 
 4984.5000
     9.604500    80.599998   117.489807     6.381900     6.902700     3.766400
     4.107700    26.685431     3.116844     2.541311     7.951000     7.951000
   -16.781176                                                                 
 4985.0000
     9.745500    78.900002   124.140472     6.360300     6.741600     5.199400
     4.939500    25.091385     3.058341     2.554866     8.006000     8.006000
   -17.446888                                                                 
 4985.5000
     8.961300    79.599998   125.345734     6.341100     6.722100     5.199400
     5.179300    24.930752     2.961561     2.567479     7.560000     7.559800
   -18.180683                                                                 
 4986.0000
     8.656100    79.000000   121.655159     6.287800     6.697800     3.934300
     4.639800    25.900528     2.969687     2.550836     7.498000     7.497700
   -18.676191                                                                 
 4986.5000
     8.843700    78.500000   117.707550     6.243700     6.578300     3.105900
     4.287600    24.244375     2.873065     2.523972     7.277000     7.276900
   -18.524916                                                                 
 4987.0000
     9.176200    81.500000   113.827415     6.210600     6.510700     3.508900
     4.107700    25.022423     2.955558     2.536700     7.199000     7.199000
   -18.577887                                                                 
 4987.5000
     9.370900    80.400002   115.070488     6.176000     6.555700     3.699200
     4.272600    25.857597     2.960104     2.579852     6.930000     6.929800
   -18.188322                                                                 
 4988.0000
     9.313500    79.800003   116.842865     6.137600     6.635200     3.615300
     4.265100    27.355080     3.341872     2.598162     7.017000     7.016800
   -17.866842                                                                 
 4988.5000
     9.327500    80.500000   117.922913     6.119300     6.603800     3.430500
     4.017800    27.115021     3.246051     2.610333     7.181000     7.181500
   -17.579403                                                                 
 4989.0000
     9.406400    79.500000   117.470749     6.148300     6.487200     3.441700
     3.905400    26.842287     3.307708     2.588168     7.242000     7.241800
   -17.462168                                                                 
 4989.5000
     9.437500    80.099998   115.965080     6.191000     6.589300     4.113500
     4.115200    28.458204     3.265130     2.557013     7.141000     7.141300
   -17.276850                                                                 
 4990.0000
     9.252000    80.199997   112.912903     6.238900     6.737100     4.270200
     4.534800    29.302099     3.276227     2.558282     7.124000     7.123900
   -17.125574                                                                 
 4990.5000
     9.092100    80.099998   113.281502     6.283000     6.768800     4.074300
     4.407500    31.057188     2.975636     2.555667     7.344000     7.344100
   -16.838135                                                                 
 4991.0000
     9.519600    81.400002   119.750298     6.300600     6.733300     3.788800
     4.295100    30.100000     3.157900     2.544500     7.574000     7.573900
   -16.720901                                                                 
 4991.5000
     9.661700    80.500000   117.847763     6.306300     6.726400     3.939900
     4.482400    29.681639     3.092158     2.602772     7.798000     7.798100
   -16.535583                                                                 
 4992.0000
     9.264200    77.199997   115.320938     6.328900     6.766900     4.113500
     4.669700    26.872110     3.094678     2.595757     7.789000     7.789300
   -17.099173                                                                 
 4992.5000
     9.502700    79.199997   108.615593     6.340200     6.749200     4.270200
     4.894500    26.444405     2.949774     2.572848     7.633000     7.633400
   -17.118105                                                                 
 4993.0000
     9.502700    77.599998   114.232521     6.321100     6.742700     4.270200
     4.864600    28.420557     2.856168     2.552893     7.661000     7.660800
   -17.341282                                                                 
 4993.5000
     9.540600    79.699997   111.926964     6.297600     6.734200     4.152700
     4.872000    27.742657     2.843600     2.554761     7.529000     7.529100
   -17.428295                                                                 
 4994.0000
     9.571100    78.900002   113.206764     6.302100     6.707400     4.001500
     4.767100    27.553867     2.851619     2.573685     7.410000     7.410400
   -17.787636                                                                 
 4994.5000
     9.565600    80.599998   116.238457     6.303000     6.671900     4.007100
     4.527400    26.125643     2.914628     2.604246     7.146000     7.145800
   -18.010815                                                                 
 4995.0000
     9.557500    78.500000   123.668343     6.302800     6.720100     3.800000
     4.437400    28.800987     3.136480     2.630458     6.997000     6.997200
   -18.063787                                                                 
 4995.5000
     9.174300    78.500000   124.435593     6.312900     6.869500     3.637700
     4.160200    31.560734     3.167094     2.638265     7.358000     7.357900
   -17.946552                                                                 
 4996.0000
     9.082700    77.500000   123.862167     6.321400     6.950900     3.716000
     4.107700    31.177227     3.116184     2.594407     7.439000     7.439000
   -17.386782                                                                 
 4996.5000
     9.426400    77.300003   118.645386     6.312700     6.960700     3.609700
     4.025300    28.882580     3.184737     2.571179     7.904000     7.903500
   -17.065300                                                                 
