~VERSION INFORMATION
 VERS.                 2.0:   CWLS Log Ascii Standard    
 WRAP.                 YES:   Multiple Lines per Depth   
~WELL INFORMATION
#MNEM.UNIT              DATA                DESCRIPTION OF MNEMONIC  
#---------              ----                -----------------------  
 STRT  .FT         4700.0000                :Top Depth  
 STOP  .FT         5740.0000                :Bottom Depth  
 STEP  .FT             .5000                :Increment  
 NULL  .          -99999.000                :Null Value  
 COMP  .  Threshold Development             :Company   
 FLD   .  WILDCAT                           :Field  
 STAT  .  TEXAS                             :State  
 SRVC  .  SCHLUMBERGER                      :Service Company  
 WELL  .  B YATES 18D                       :Well  
 UWI   .  422373813000                      :Unique Well ID  
~PARAMETER INFORMATION
#MNEM.UNIT        Value       Description                
#---------    -------------   -------------------------- 
 RUN   .                 1:   Run Number                 
 DATUM .FT       1040.0000:   Datum                      
 AMST  .DEG.F      80.0000:   Annual Mean Surface Temp.  
 BHT   .DEG.F     137.0000:   Bottom Hole Temperature    
 TD    .FT       5750.0000:   Loggers Total Depth        
 BITSIZ.IN          7.8750:   Bit Size                   
 MW    .LB/USGAL    9.3000:   Mud Weight                 
 RM    .OHM-M       3.7400:   Mud Resistivity            
 RMMT  .DEG.F      70.0000:   Mud Resistivity Meas. Temp.
 RMF   .OHM-M       3.1800:   Mud Filtrate Resistivity   
 RMFMT .DEG.F      70.0000:   Mud Filtrate Res.Meas.Temp.
 RMC   .OHM-M       5.6100:   Mud Cake Resistivity       
 RMCMT .DEG.F      70.0000:   Mud Cake Res. Meas. Temp.  
 RW    .OHM-M        .0539:   Formation Water Resistivity
 RWMT  .DEG.F      75.0000:   Formation Water Res.M.Temp.
 SALFM .PPM      150000.00:   Formation Water Salinity   
~CURVE INFORMATION
#MNEM.UNIT       API Code     Curve Description          
#---------    -------------   -------------------------- 
 DEPTH .FT                    : Depth                                   
 CALI  .INS                   : Caliper (from density)                  
 DLT   .US/FT                 : Borehole Compensated Sonic Travel Time  
 GR    .API                   : Gamma Ray                               
 RILD  .OHMM                  : Deep Induction Resistivity              
 RILM  .OHMM                  : Medium Induction Resistivity            
 MINV  .OHMM                  : Microlog Inverse Resistivity            
 MNOR  .OHMM                  : Microlog Normal Resistivity             
 NPHI  .PU                    : Compensated Neutron (Limestone)         
 PEF   .B/E                   : Photoelectric Effect                    
 RHOB  .G/CC                  : Formation Density Compensated           
 RSFL  .OHMM                  : Spherically Focused Resitivity          
 SFLU  .OHMM                  : Spherically Focused Resitivity (Unaveraged)
 SP    .MV                    : Spontaneous Potential                   
~A Log Data Section - Number of Curves =    14
# ...
 5591.0000
     7.896600    54.799999    34.378860    12.686400    18.528900    60.913399
    69.140900     3.948164     4.735563     2.681422   176.923996   176.924103
   -27.311354                                                                 
 5591.5000
     7.905800    55.099998    32.625469    17.306499    25.990299    68.772598
    80.567902     4.621055     4.923021     2.685024   149.580002   149.580307
   -28.178686                                                                 
 5592.0000
     7.900700    51.200001    33.396317    24.648701    35.762798    88.045601
   121.173500     5.252656     4.413638     2.689098   169.634003   169.634399
   -28.841772                                                                 
 5592.5000
     7.903400    53.500000    36.947296    30.469000    45.146999    99.380997
   140.977997     6.301133     3.913769     2.683999   298.042999   298.042603
   -28.211294                                                                 
 5593.0000
     7.913600    53.099998    44.133488    28.956301    53.245800    91.611397
   127.115700     7.991124     3.590363     2.664860   539.906006   539.905518
   -27.716976                                                                 
 5593.5000
     7.905500    54.299999    62.922607    22.687401    49.914398    79.447502
   111.095200    11.184298     3.357604     2.621517   642.466003   642.465881
   -25.997179                                                                 
 5594.0000
     7.944100    53.599998    84.083832    16.898300    34.028000    65.195702
    93.905800    15.562451     3.167885     2.580212   384.640991   384.640900
   -24.515669                                                                 
 5594.5000
     7.936400    56.900002   106.958443    12.106500    20.525299    40.241001
    52.333599    21.224249     3.021141     2.543781   101.949997   101.950104
   -23.068201                                                                 
 5595.0000
     8.032500    70.000000   119.918350     8.075000    11.826200    10.119500
    10.641600    26.852694     2.877598     2.510151    23.288000    23.287701
   -22.199430                                                                 
 5595.5000
     8.149100    84.599998   136.802902     6.380400     6.731800     3.105600
     3.313200    31.907127     2.828758     2.485143     7.806000     7.805900
   -22.181694                                                                 
 5596.0000
     8.254200    92.300003   143.586243     5.303800     4.780500     2.232300
     2.489000    32.717422     2.913173     2.478625     4.919000     4.919300
   -22.470325                                                                 
 5596.5000
     8.533900    93.400002   147.427322     4.336700     4.136300     2.064400
     2.181800    33.404140     2.971294     2.475839     3.973000     3.972700
   -22.792999                                                                 
 5597.0000
     8.377200   100.900002   141.517731     3.838600     3.741800     2.237900
     2.226700    34.640663     2.922680     2.481892     3.788000     3.787800
   -22.809303                                                                 
 5597.5000
     8.264500    96.199997   134.951660     3.497300     3.451200     2.254700
     2.226700    37.281094     2.863467     2.473143     3.950000     3.950200
   -22.519234                                                                 
 5598.0000
     8.268500    98.099998   137.840729     3.248500     3.320100     2.417100
     2.294100    36.221367     2.739989     2.452096     4.380000     4.380200
   -21.888756                                                                 
 5598.5000
     8.225100    93.800003   142.584610     3.230900     3.333700     2.629800
     2.489000    33.420704     2.657766     2.450498     4.439000     4.438800
   -21.394440                                                                 
 5599.0000
     8.103200    89.900002   146.662415     3.332900     3.486300     3.609400
     3.395600    30.760187     2.658069     2.456838     4.663000     4.663200
   -21.036289                                                                 
 5599.5000
     7.981800    92.300003   151.214691     3.648700     3.695500     4.157900
     3.822800    32.441601     2.749737     2.461429     5.094000     5.093600
   -21.120674                                                                 
 5600.0000
     7.932800    83.500000   149.785675     4.134900     4.070900     3.547800
     3.395600    33.749062     2.862797     2.475227     5.298000     5.298100
   -21.068895                                                                 
 5600.5000
     7.999000    76.300003   131.648331     4.854700     4.717600     4.941600
     3.995100    28.947889     3.073037     2.496118     5.164000     5.164200
   -21.595818                                                                 
 5601.0000
     7.921000    69.099998    94.310188     5.782000     6.090700     9.654900
    11.922900    19.083155     3.174172     2.518480     6.227000     6.226800
   -22.156778                                                                 
 5601.5000
     7.847900    67.000000    58.532688     7.020700     8.954600    12.190700
    18.269600    11.442968     3.188575     2.537942    11.658000    11.658300
   -24.181513                                                                 
 5602.0000
     7.794200    64.400002    39.821293     9.030900    11.408000     9.005600
    17.422899     9.710215     3.236132     2.529272    31.980000    31.980499
   -27.023233                                                                 
 5602.5000
     7.799900    65.400002    34.673244    11.251800    14.537300     8.748100
    16.463800    10.195312     3.346506     2.516518   119.734001   119.733803
   -31.158524                                                                 
 5603.0000
     7.872000    65.900002    33.844322    15.283800    22.044800     9.246300
    17.033199     9.951817     3.535796     2.534242   142.625000   142.624695
   -33.217297                                                                 
 5603.5000
     7.892200    60.500000    31.305632    24.541901    32.791901    13.842000
    22.833000     8.399297     3.785573     2.573304   137.923996   137.923996
   -34.663330                                                                 
 5604.0000
     7.910800    60.299999    28.836750    33.632599    46.807701    28.810400
    46.024399     6.420000     4.076550     2.612350   152.632004   152.631699
   -34.713673                                                                 
 5604.5000
     7.906200    53.599998    28.475386    40.786999    63.857498    40.235298
    69.425598     4.911328     4.189425     2.644189   194.593994   194.594193
   -33.674702                                                                 
 5605.0000
     7.900700    55.500000    30.301662    39.406101    70.728500    47.641201
    76.386803     4.425918     4.013811     2.665166   309.169006   309.168610
   -32.193192                                                                 
 5605.5000
     7.917700    56.900002    34.237869    32.831299    55.283798    59.469200
    79.151802     5.135547     3.780572     2.672191   326.207001   326.207214
   -29.996815                                                                 
 5606.0000
     7.901800    77.500000    40.125469    26.122400    39.816299    68.962898
    69.965103     7.512695     3.723490     2.660506   161.440994   161.440903
   -26.779205                                                                 
 5606.5000
     7.898000    82.500000    48.915100    21.453100    27.434299    47.372501
    45.799599    10.999844     3.642964     2.635936    70.567001    70.567001
   -23.902004                                                                 
 5607.0000
     7.912300    80.599998    59.810047    18.231899    18.305401    38.539200
    36.185799    14.076357     3.477152     2.621379    40.477001    40.476501
   -21.195013                                                                 
