~VERSION INFORMATION
 VERS.                 2.0:   CWLS Log Ascii Standard    
 WRAP.                 YES:   Multiple Lines per Depth   
~WELL INFORMATION
#MNEM.UNIT              DATA                DESCRIPTION OF MNEMONIC  
#---------              ----                -----------------------  
 STRT  .FT         4700.0000                :Top Depth  
 STOP  .FT         5740.0000                :Bottom Depth  
 STEP  .FT             .5000                :Increment  
 NULL  .          -99999.000                :Null Value  
 COMP  .  Threshold Development             :Company   
 FLD   .  WILDCAT                           :Field  
 STAT  .  TEXAS                             :State  
 SRVC  .  SCHLUMBERGER                      :Service Company  
 WELL  .  B YATES 18D                       :Well  
 UWI   .  422373813000                      :Unique Well ID  
~PARAMETER INFORMATION
#MNEM.UNIT        Value       Description                
#---------    -------------   -------------------------- 
 RUN   .                 1:   Run Number                 
 DATUM .FT       1040.0000:   Datum                      
 AMST  .DEG.F      80.0000:   Annual Mean Surface Temp.  
 BHT   .DEG.F     137.0000:   Bottom Hole Temperature    
 TD    .FT       5750.0000:   Loggers Total Depth        
 BITSIZ.IN          7.8750:   Bit Size                   
 MW    .LB/USGAL    9.3000:   Mud Weight                 
 RM    .OHM-M       3.7400:   Mud Resistivity            
 RMMT  .DEG.F      70.0000:   Mud Resistivity Meas. Temp.
 RMF   .OHM-M       3.1800:   Mud Filtrate Resistivity   
 RMFMT .DEG.F      70.0000:   Mud Filtrate Res.Meas.Temp.
 RMC   .OHM-M       5.6100:   Mud Cake Resistivity       
 RMCMT .DEG.F      70.0000:   Mud Cake Res. Meas. Temp.  
 RW    .OHM-M        .0539:   Formation Water Resistivity
 RWMT  .DEG.F      75.0000:   Formation Water Res.M.Temp.
 SALFM .PPM      150000.00:   Formation Water Salinity   
~CURVE INFORMATION
#MNEM.UNIT       API Code     Curve Description          
#---------    -------------   -------------------------- 
 DEPTH .FT                    : Depth                                   
 CALI  .INS                   : Caliper (from density)                  
 DLT   .US/FT                 : Borehole Compensated Sonic Travel Time  
 GR    .API                   : Gamma Ray                               
 RILD  .OHMM                  : Deep Induction Resistivity              
 RILM  .OHMM                  : Medium Induction Resistivity            
 MINV  .OHMM                  : Microlog Inverse Resistivity            
 MNOR  .OHMM                  : Microlog Normal Resistivity             
 NPHI  .PU                    : Compensated Neutron (Limestone)         
 PEF   .B/E                   : Photoelectric Effect                    
 RHOB  .G/CC                  : Formation Density Compensated           
 RSFL  .OHMM                  : Spherically Focused Resitivity          
 SFLU  .OHMM                  : Spherically Focused Resitivity (Unaveraged)
 SP    .MV                    : Spontaneous Potential                   
~A Log Data Section - Number of Curves =    14
# ...
 4766.0000
     8.280900    76.000000    86.973724     7.979400     8.733800     9.465000
     7.255000    22.323790     3.975763     2.600674    11.800000    11.800100
   -18.174919                                                                 
 4766.5000
     8.264100    73.400002    86.519562     7.871600     8.477700    10.842000
     8.251500    21.043516     4.055661     2.612082    11.362000    11.361600
   -18.284924                                                                 
 4767.0000
     8.289900    74.400002    85.481453     7.759500     8.337800    10.959600
     8.536300    21.452499     4.164650     2.608500    10.405000    10.404500
   -18.020475                                                                 
 4767.5000
     8.275900    75.099998    84.422935     7.642500     8.191700    10.786000
     8.349000    23.307304     4.371708     2.599876     9.796000     9.796400
   -17.687944                                                                 
 4768.0000
     8.278500    75.500000    81.831093     7.509200     7.982100    10.058300
     7.547200    24.250467     4.256700     2.594697     9.637000     9.636800
   -17.287331                                                                 
 4768.5000
     8.280900    77.300003    85.653816     7.294400     7.833100     9.325000
     6.977700    24.295643     4.213569     2.584316     9.530000     9.529500
   -16.988840                                                                 
 4769.0000
     8.276400    77.199997    86.562416     7.051400     7.648300     9.767300
     6.955200    24.271494     4.312619     2.586553     9.472000     9.472100
   -16.111650                                                                 
 4769.5000
     8.275900    77.300003    88.298317     6.932100     7.452000     9.179500
     6.722900    24.883183     4.432765     2.595447     9.379000     9.378900
   -11.523969                                                                 
 4770.0000
     8.276400    77.800003    84.687378     6.820900     7.252100     9.056400
     6.655500    24.438192     4.219524     2.598493     9.072000     9.072100
    -9.999994                                                                 
 4770.5000
     8.265700    78.500000    88.135254     6.728200     7.086100     9.173900
     6.535600    23.684933     4.335930     2.592583     8.507000     8.507200
   -11.982265                                                                 
 4771.0000
     8.280900    78.400002    85.406128     6.643100     7.079000     8.709300
     6.333300    23.363400     4.287210     2.604002     8.232000     8.232400
   -16.721872                                                                 
 4771.5000
     8.280800    78.500000    88.376648     6.508000     7.032000     7.998400
     5.756300    23.486719     4.257833     2.605381     8.706000     8.705700
   -18.125443                                                                 
 4772.0000
     8.280900    78.500000    94.296654     6.342700     6.851400     7.796900
     5.569000    23.720684     4.126159     2.605718     9.149000     9.149200
   -18.201405                                                                 
 4772.5000
     8.280800    78.099998    96.615173     6.236900     6.623800     8.854800
     6.153500    24.080391     4.147434     2.614788     8.880000     8.880100
   -18.413532                                                                 
 4773.0000
     8.270800    77.699997    97.699806     6.173500     6.483300     9.280300
     6.618000    24.555468     3.835073     2.616903     8.172000     8.171500
   -18.523537                                                                 
 4773.5000
     8.278500    79.099998    91.538910     6.099500     6.409600     8.625300
     6.280800    26.288280     3.824670     2.598844     7.728000     7.727700
   -18.293129                                                                 
 4774.0000
     8.275900    80.199997    90.081383     6.040500     6.378000     7.349000
     5.434100    24.455877     3.814356     2.596610     7.668000     7.668500
   -16.122374                                                                 
 4774.5000
     8.291100    79.800003    88.347618     6.012900     6.308900     6.307900
     5.164300    25.056034     3.825460     2.591652     7.531000     7.530900
   -11.500650                                                                 
 4775.0000
     8.311900    81.300003    90.091156     5.979800     6.292500     6.028000
     5.051900    25.130556     3.910557     2.584964     7.316000     7.316200
   -11.848943                                                                 
 4775.5000
     8.306300    81.199997    95.480629     5.954400     6.383700     6.419800
     5.022000    27.621172     4.172856     2.605585     7.411000     7.410700
   -11.618535                                                                 
 4776.0000
     8.277400    80.500000    96.583969     5.935300     6.433000     5.949600
     5.007000    26.042646     4.132631     2.601096     7.765000     7.765400
   -10.775386                                                                 
 4776.5000
     8.275900    79.500000    96.044182     5.911900     6.418000     6.078400
     5.051900    25.482929     4.077826     2.599234     8.390000     8.390400
   -10.919432                                                                 
 4777.0000
     8.276400    78.599998    89.502892     5.933000     6.301400     7.169900
     5.561500    25.213789     4.061919     2.606515     8.267000     8.266800
   -13.650608                                                                 
 4777.5000
     8.265700    79.500000    85.955856     5.956300     6.294300     7.651300
     5.921200    27.559921     4.010251     2.594857     8.077000     8.076700
   -15.054177                                                                 
 4778.0000
     8.270800    79.199997    88.815559     5.960700     6.322700     7.097100
     5.396600    27.855000     3.970294     2.583410     7.488000     7.488200
   -11.930267                                                                 
 4778.5000
     8.294100    79.500000    93.723465     5.946200     6.336200     5.658500
     5.396600    27.225157     4.105659     2.589305     7.636000     7.636500
   -11.836025                                                                 
 4779.0000
     8.311300    80.500000    96.085480     5.904500     6.299600     5.770500
     5.321700    26.584131     4.192791     2.600801     7.735000     7.735300
   -13.001307                                                                 
 4779.5000
     8.294100    80.500000    95.432999     5.835000     6.222900     6.946000
     5.209300    25.754307     4.158104     2.607619     7.923000     7.923300
   -17.945162                                                                 
 4780.0000
     8.261900    79.699997    97.341003     5.818800     6.155400     7.231500
     5.524000    24.253817     4.126732     2.597156     7.665000     7.664600
   -19.552979                                                                 
 4780.5000
     8.295300    79.800003    97.410515     5.817200     6.161500     7.505800
     5.509000    22.169403     4.117235     2.587661     7.436000     7.436300
   -19.322571                                                                 
 4781.0000
     8.291100    80.800003    96.424576     5.811800     6.179900     6.918000
     5.321700    21.859356     3.993108     2.586798     7.421000     7.420700
   -19.568739                                                                 
 4781.5000
     8.292200    81.199997    96.030449     5.803300     6.190800     6.162300
     5.186800    22.907890     3.818649     2.587090     7.472000     7.471700
   -19.474497                                                                 
 4782.0000
     8.307400    80.699997    94.616356     5.779300     6.185200     6.145500
     5.539000    24.130428     3.711483     2.590568     7.736000     7.735900
   -19.073883                                                                 
