~VERSION INFORMATION
 VERS.                 2.0:   CWLS Log Ascii Standard    
 WRAP.                 YES:   Multiple Lines per Depth   
~WELL INFORMATION
#MNEM.UNIT              DATA                DESCRIPTION OF MNEMONIC  
#---------              ----                -----------------------  
 STRT  .FT         4700.0000                :Top Depth  
 STOP  .FT         5740.0000                :Bottom Depth  
 STEP  .FT             .5000                :Increment  
 NULL  .          -99999.000                :Null Value  
 COMP  .  Threshold Development             :Company   
 FLD   .  WILDCAT                           :Field  
 STAT  .  TEXAS                             :State  
 SRVC  .  SCHLUMBERGER                      :Service Company  
 WELL  .  B YATES 18D                       :Well  
 UWI   .  422373813000                      :Unique Well ID  
~PARAMETER INFORMATION
#MNEM.UNIT        Value       Description                
#---------    -------------   -------------------------- 
 RUN   .                 1:   Run Number                 
 DATUM .FT       1040.0000:   Datum                      
 AMST  .DEG.F      80.0000:   Annual Mean Surface Temp.  
 BHT   .DEG.F     137.0000:   Bottom Hole Temperature    
 TD    .FT       5750.0000:   Loggers Total Depth        
 BITSIZ.IN          7.8750:   Bit Size                   
 MW    .LB/USGAL    9.3000:   Mud Weight                 
 RM    .OHM-M       3.7400:   Mud Resistivity            
 RMMT  .DEG.F      70.0000:   Mud Resistivity Meas. Temp.
 RMF   .OHM-M       3.1800:   Mud Filtrate Resistivity   
 RMFMT .DEG.F      70.0000:   Mud Filtrate Res.Meas.Temp.
 RMC   .OHM-M       5.6100:   Mud Cake Resistivity       
 RMCMT .DEG.F      70.0000:   Mud Cake Res. Meas. Temp.  
 RW    .OHM-M        .0539:   Formation Water Resistivity
 RWMT  .DEG.F      75.0000:   Formation Water Res.M.Temp.
 SALFM .PPM      150000.00:   Formation Water Salinity   
~CURVE INFORMATION
#MNEM.UNIT       API Code     Curve Description          
#---------    -------------   -------------------------- 
 DEPTH .FT                    : Depth                                   
 CALI  .INS                   : Caliper (from density)                  
 DLT   .US/FT                 : Borehole Compensated Sonic Travel Time  
 GR    .API                   : Gamma Ray                               
 RILD  .OHMM                  : Deep Induction Resistivity              
 RILM  .OHMM                  : Medium Induction Resistivity            
 MINV  .OHMM                  : Microlog Inverse Resistivity            
 MNOR  .OHMM                  : Microlog Normal Resistivity             
 NPHI  .PU                    : Compensated Neutron (Limestone)         
 PEF   .B/E                   : Photoelectric Effect                    
 RHOB  .G/CC                  : Formation Density Compensated           
 RSFL  .OHMM                  : Spherically Focused Resitivity          
 SFLU  .OHMM                  : Spherically Focused Resitivity (Unaveraged)
 SP    .MV                    : Spontaneous Potential                   
~A Log Data Section - Number of Curves =    14
# ...
 5525.0000
     7.949700    67.699997    67.759682    12.086300    13.112000    18.600201
    13.414100    14.019336     4.176521     2.627280    12.768000    12.767600
   -16.570099                                                                 
 5525.5000
     7.946300    64.300003    60.366566    11.265000    13.778000    24.472200
    17.790100    11.983984     4.083458     2.630537    16.045000    16.045000
   -16.062725                                                                 
 5526.0000
     7.949700    65.300003    62.264812    10.379400    13.461600    31.239901
    23.792101    12.742969     3.929601     2.624285    25.598000    25.598200
   -15.997887                                                                 
 5526.5000
     7.977700    68.199997    63.723988    10.116600    11.919800    25.345400
    21.042101    15.249990     3.698465     2.613503    29.502001    29.502100
   -15.558597                                                                 
 5527.0000
     7.976300    70.099998    73.791939     9.989500    10.889000    12.448300
    12.027800    16.686749     3.467184     2.605508    22.232000    22.231800
   -14.404441                                                                 
 5527.5000
     7.981800    73.500000    71.301422     9.840900    10.515100     8.412300
     7.981500    17.133516     3.331296     2.599261    13.277000    13.276800
   -14.067274                                                                 
 5528.0000
     7.981800    73.099998    77.757301     9.484300    10.060700     8.804100
     8.438600    16.330400     3.328507     2.605448    10.912000    10.912400
   -14.717302                                                                 
 5528.5000
     7.967400    73.099998    73.477608     8.757500     9.409600     8.132400
     8.573500    16.328320     3.306028     2.604111    10.604000    10.604000
   -14.312054                                                                 
 5529.0000
     8.030500    72.500000    78.533730     7.903300     8.756700     8.149200
     8.461100    15.891710     3.356558     2.600634    10.517000    10.516900
   -11.592001                                                                 
 5529.5000
     8.027700    74.500000    78.252411     7.426000     8.074800     8.451500
     8.528500    16.965742     3.315961     2.594624    10.320000    10.320200
   -11.765452                                                                 
 5530.0000
     8.044500    75.599998    82.111115     7.078900     7.678800     8.070800
     8.356200    17.715158     3.420318     2.591364    10.271000    10.271200
   -13.845211                                                                 
 5530.5000
     8.067700    75.699997    83.370361     6.813000     7.286900     7.421500
     7.359600    18.985567     3.551047     2.597095    10.104000    10.104300
   -13.542086                                                                 
 5531.0000
     8.137400    76.699997    84.786736     6.573800     7.012200     7.371100
     6.475400    19.096582     3.643013     2.595873     9.675000     9.674900
   -13.341084                                                                 
 5531.5000
     8.109100    77.599998    85.371918     6.287700     6.790300     7.427100
     6.220600    19.980331     3.609290     2.588682     9.145000     9.144700
   -13.276245                                                                 
 5532.0000
     8.142400    77.599998    85.569511     6.110400     6.477200     7.371100
     5.995800    21.312187     3.541892     2.593639     8.754000     8.753700
   -13.279490                                                                 
 5532.5000
     8.154200    78.599998    84.387848     5.945300     6.162200     7.068800
     5.583700    21.755672     3.517802     2.601902     8.389000     8.389300
   -13.691230                                                                 
 5533.0000
     8.200900    78.800003    83.156754     5.791200     6.006500     6.945700
     5.381400    22.361250     3.447618     2.604485     7.835000     7.835300
   -13.320022                                                                 
 5533.5000
     8.241600    78.800003    77.585754     5.668200     5.928000     7.063200
     5.463800    21.430273     3.353195     2.606278     7.474000     7.474100
   -13.357308                                                                 
 5534.0000
     8.289700    78.199997    80.442581     5.517200     5.862500     7.208800
     5.463800    21.117538     3.265476     2.603827     7.556000     7.555900
   -13.462678                                                                 
 5534.5000
     8.291100    79.099998    87.299271     5.323400     5.757500     7.091200
     5.328900    20.115194     3.360883     2.606028     7.773000     7.772700
   -13.499962                                                                 
 5535.0000
     8.291100    79.500000    93.934296     5.156400     5.588400     7.068800
     5.141600    19.306913     3.342215     2.612581     7.725000     7.725300
   -13.877661                                                                 
 5535.5000
     8.286200    80.300003    90.490761     4.922500     5.410200     6.956900
     4.991700    19.929356     3.415118     2.607530     7.476000     7.475600
   -14.902142                                                                 
 5536.0000
     8.301200    80.800003    89.084702     4.626700     5.132300     6.749800
     4.766900    20.396406     3.377600     2.602193     7.271000     7.270700
   -14.905388                                                                 
 5536.5000
     8.321900    81.900002    90.514236     4.261500     4.755200     6.318700
     4.407300    22.468632     3.306789     2.588600     7.175000     7.174800
   -14.091644                                                                 
 5537.0000
     8.304900    86.699997    95.932335     3.808100     4.252600     5.092800
     3.657900    25.008553     3.254087     2.570451     6.397000     6.397300
   -14.911876                                                                 
 5537.5000
     8.309500    91.699997   103.048317     3.509700     3.636900     3.771800
     2.863700    26.849861     3.164120     2.555525     4.828000     4.827900
   -16.378893                                                                 
 5538.0000
     8.372200    95.900002   110.828362     3.235400     3.245700     3.077700
     2.384100    27.855156     3.037377     2.541406     3.731000     3.730800
   -16.722551                                                                 
 5538.5000
     8.391800    96.000000   119.757973     2.935100     3.039000     2.937700
     2.316700    28.661182     2.965296     2.530577     3.362000     3.361800
   -17.712990                                                                 
 5539.0000
     8.377200    99.000000   125.273529     2.751500     2.856900     2.769800
     2.279200    30.756611     3.005490     2.526475     3.283000     3.282500
   -18.907679                                                                 
 5539.5000
     8.407700    99.599998   124.249107     2.603700     2.712000     2.652200
     2.121800    33.995888     3.084877     2.514755     3.259000     3.259400
   -19.115168                                                                 
 5540.0000
     8.432300    99.800003   124.107056     2.483400     2.624200     2.601800
     2.084400    35.092110     3.076008     2.500315     3.103000     3.103500
   -19.969444                                                                 
 5540.5000
     8.321500    98.300003   119.271477     2.436500     2.576600     2.585000
     2.054400    34.394844     3.138939     2.487211     3.064000     3.064200
   -20.415224                                                                 
 5541.0000
     8.325200    95.900002   120.771744     2.409300     2.573800     2.758600
     2.151800    32.197208     3.186613     2.489692     3.286000     3.285700
   -20.826965                                                                 
