~VERSION INFORMATION
 VERS.                 2.0:   CWLS Log Ascii Standard    
 WRAP.                 YES:   Multiple Lines per Depth   
~WELL INFORMATION
#MNEM.UNIT              DATA                DESCRIPTION OF MNEMONIC  
#---------              ----                -----------------------  
 STRT  .FT         4700.0000                :Top Depth  
 STOP  .FT         5740.0000                :Bottom Depth  
 STEP  .FT             .5000                :Increment  
 NULL  .          -99999.000                :Null Value  
 COMP  .  Threshold Development             :Company   
 FLD   .  WILDCAT                           :Field  
 STAT  .  TEXAS                             :State  
 SRVC  .  SCHLUMBERGER                      :Service Company  
 WELL  .  B YATES 18D                       :Well  
 UWI   .  422373813000                      :Unique Well ID  
~PARAMETER INFORMATION
#MNEM.UNIT        Value       Description                
#---------    -------------   -------------------------- 
 RUN   .                 1:   Run Number                 
 DATUM .FT       1040.0000:   Datum                      
 AMST  .DEG.F      80.0000:   Annual Mean Surface Temp.  
 BHT   .DEG.F     137.0000:   Bottom Hole Temperature    
 TD    .FT       5750.0000:   Loggers Total Depth        
 BITSIZ.IN          7.8750:   Bit Size                   
 MW    .LB/USGAL    9.3000:   Mud Weight                 
 RM    .OHM-M       3.7400:   Mud Resistivity            
 RMMT  .DEG.F      70.0000:   Mud Resistivity Meas. Temp.
 RMF   .OHM-M       3.1800:   Mud Filtrate Resistivity   
 RMFMT .DEG.F      70.0000:   Mud Filtrate Res.Meas.Temp.
 RMC   .OHM-M       5.6100:   Mud Cake Resistivity       
 RMCMT .DEG.F      70.0000:   Mud Cake Res. Meas. Temp.  
 RW    .OHM-M        .0539:   Formation Water Resistivity
 RWMT  .DEG.F      75.0000:   Formation Water Res.M.Temp.
 SALFM .PPM      150000.00:   Formation Water Salinity   
~CURVE INFORMATION
#MNEM.UNIT       API Code     Curve Description          
#---------    -------------   -------------------------- 
 DEPTH .FT                    : Depth                                   
 CALI  .INS                   : Caliper (from density)                  
 DLT   .US/FT                 : Borehole Compensated Sonic Travel Time  
 GR    .API                   : Gamma Ray                               
 RILD  .OHMM                  : Deep Induction Resistivity              
 RILM  .OHMM                  : Medium Induction Resistivity            
 MINV  .OHMM                  : Microlog Inverse Resistivity            
 MNOR  .OHMM                  : Microlog Normal Resistivity             
 NPHI  .PU                    : Compensated Neutron (Limestone)         
 PEF   .B/E                   : Photoelectric Effect                    
 RHOB  .G/CC                  : Formation Density Compensated           
 RSFL  .OHMM                  : Spherically Focused Resitivity          
 SFLU  .OHMM                  : Spherically Focused Resitivity (Unaveraged)
 SP    .MV                    : Spontaneous Potential                   
~A Log Data Section - Number of Curves =    14
 4700.0000
    10.437000    84.199997   118.214073     4.858600     4.979800     2.490200
     2.579200    28.088917     2.923442     2.360820     5.819000     5.819400
   -19.789886                                                                 
 4700.5000
    10.881900    87.199997   121.004349     4.844900     4.748600     2.658200
     2.631700    26.803976     2.898462     2.370888     6.045000     6.045200
   -21.159416                                                                 
 4701.0000
    11.261900    85.199997   120.207253     4.831300     4.628600     8.295100
     3.223600    28.264200     2.852015     2.382125     5.266000     5.266400
   -21.984285                                                                 
 4701.5000
     9.925300    86.599998   119.415268     4.882900     4.588000     8.457400
     3.261100    32.065662     2.807356     2.362537     5.252000     5.252200
   -22.502785                                                                 
 4702.0000
    10.349400    93.599998   119.487480     4.964700     4.670700     3.016400
     3.081300    33.905098     2.792562     2.353970     4.868000     4.868100
   -22.851076                                                                 
 4702.5000
    10.522200   100.099998   122.569023     4.922200     4.915800     3.419400
     2.834000    34.542316     2.903719     2.393928     4.963000     4.963000
   -22.450464                                                                 
 4703.0000
    10.886800    98.400002   119.488083     4.793800     5.170400     2.876500
     2.406900    35.115959     2.935281     2.437940     5.284000     5.283800
   -21.369026                                                                 
 4703.5000
    10.886800    94.599998   117.083916     4.589200     5.201100     2.406200
     2.152100    33.631641     2.988472     2.483722     5.719000     5.718700
   -19.811010                                                                 
 4704.0000
    11.274900    91.400002   114.639809     4.443900     4.988800     2.361500
     2.144600    31.746229     3.049567     2.516226     5.944000     5.943900
   -18.150873                                                                 
 4704.5000
    11.297400    84.400002   115.720757     4.374400     4.714000     3.357900
     2.639200    28.687500     3.172476     2.539848     5.476000     5.476000
   -17.069435                                                                 
 4705.0000
    11.610800    82.500000   116.020973     4.364700     4.419100     3.369100
     3.156200    30.510712     3.228414     2.563444     4.667000     4.667300
   -15.817792                                                                 
 4705.5000
    10.415300    86.500000   119.977562     4.320500     4.325100     2.798100
     3.186200    31.267197     3.272948     2.548309     4.412000     4.412500
   -15.621426                                                                 
 4706.0000
    10.882800    86.000000   125.294739     4.204700     4.303700     3.100400
     3.096300    32.405548     3.265948     2.520963     4.516000     4.516500
   -15.731430                                                                 
 4706.5000
    10.562300    86.400002   124.524651     4.108300     4.265600     3.050000
     2.893900    30.917665     3.152709     2.501132     4.891000     4.890600
   -15.977599                                                                 
 4707.0000
    10.623200    87.199997   117.080307     4.025000     4.198300     2.680500
     2.804000    30.459999     3.077117     2.488038     4.830000     4.829600
   -16.257809                                                                 
 4707.5000
    10.916300    88.900002   116.357681     3.956000     4.163900     2.596600
     2.811500    31.466055     3.079903     2.509341     4.804000     4.803700
   -16.163567                                                                 
 4708.0000
    10.919500    87.300003   118.472931     3.936100     4.155500     2.702900
     2.976400    34.043457     3.031634     2.541143     4.827000     4.826900
   -15.728911                                                                 
 4708.5000
    10.818900    87.599998   122.552521     3.917500     4.162300     2.949200
     2.908900    34.441532     3.011710     2.555911     4.659000     4.659300
   -15.362339                                                                 
 4709.0000
    11.038900    86.500000   114.424744     3.907800     4.158500     3.022000
     2.893900    33.465263     3.102320     2.554339     4.723000     4.723000
   -15.370220                                                                 
 4709.5000
    10.876400    86.300003   113.718361     3.894100     4.136400     2.893300
     3.058800    30.919111     3.219893     2.548940     4.787000     4.786600
   -15.446183                                                                 
 4710.0000
    10.973000    85.000000   112.072296     3.900400     4.091500     3.005200
     3.058800    29.432070     3.213065     2.532704     4.670000     4.669800
   -15.964682                                                                 
 4710.5000
    10.967900    86.400002   112.937340     3.954300     4.054200     2.938000
     3.186200    28.446220     3.101574     2.498074     4.582000     4.582400
   -16.312975                                                                 
 4711.0000
    10.878300    89.400002   113.476006     4.044900     4.126600     2.814900
     3.231100    29.497286     3.099617     2.469002     4.824000     4.824300
   -16.763391                                                                 
 4711.5000
    10.501500    89.400002   110.515846     4.114700     4.374200     2.910100
     3.066300    32.040997     3.086685     2.442435     5.125000     5.125400
   -16.771273                                                                 
 4712.0000
    10.532000    89.000000   107.769249     4.195500     4.553400     2.512600
     2.676600    32.109951     2.996336     2.438740     5.087000     5.087400
   -16.404699                                                                 
 4712.5000
    10.927300    90.099998   106.041084     4.275100     4.651500     2.154300
     2.317000    29.581984     2.973524     2.467727     5.172000     5.171500
   -15.493467                                                                 
 4713.0000
    11.239500    87.099998   108.487343     4.326600     4.683500     2.680500
     2.646700    27.602070     3.145977     2.513698     5.224000     5.223600
   -15.331142                                                                 
 4713.5000
    11.322300    88.000000   117.805458     4.390900     4.705400     3.212300
     3.231100    27.175468     3.184978     2.541271     5.462000     5.462400
   -15.134776                                                                 
 4714.0000
    10.588900    84.599998   118.254486     4.463800     4.738600     3.318700
     3.545900    27.965351     3.214444     2.541856     5.688000     5.688200
   -16.640469                                                                 
 4714.5000
    10.569800    83.099998   117.192642     4.481300     4.733500     3.704900
     3.665700    25.922070     3.163990     2.499033     5.692000     5.691500
   -21.039665                                                                 
 4715.0000
    10.461700    85.800003   113.929741     4.512700     4.625800     3.676900
     3.673200    25.548731     2.999109     2.439259     5.407000     5.406900
   -16.996643                                                                 
 4715.5000
    10.199000    85.900002   113.155426     4.518400     4.588800     3.419400
     3.665700    28.453791     2.958450     2.372939     5.890000     5.890400
   -17.719389                                                                 
 4716.0000
     9.720700    91.000000   113.730080     4.488400     4.712900     4.046400
     3.208700    31.757540     3.002974     2.336123     5.732000     5.732000
   -22.969614                                                                 
