~VERSION INFORMATION
 VERS.                 2.0:   CWLS Log Ascii Standard    
 WRAP.                 YES:   Multiple Lines per Depth   
~WELL INFORMATION
#MNEM.UNIT              DATA                DESCRIPTION OF MNEMONIC  
#---------              ----                -----------------------  
 STRT  .FT         4700.0000                :Top Depth  
 STOP  .FT         5740.0000                :Bottom Depth  
 STEP  .FT             .5000                :Increment  
 NULL  .          -99999.000                :Null Value  
 COMP  .  Threshold Development             :Company   
 FLD   .  WILDCAT                           :Field  
 STAT  .  TEXAS                             :State  
 SRVC  .  SCHLUMBERGER                      :Service Company  
 WELL  .  B YATES 18D                       :Well  
 UWI   .  422373813000                      :Unique Well ID  
~PARAMETER INFORMATION
#MNEM.UNIT        Value       Description                
#---------    -------------   -------------------------- 
 RUN   .                 1:   Run Number                 
 DATUM .FT       1040.0000:   Datum                      
 AMST  .DEG.F      80.0000:   Annual Mean Surface Temp.  
 BHT   .DEG.F     137.0000:   Bottom Hole Temperature    
 TD    .FT       5750.0000:   Loggers Total Depth        
 BITSIZ.IN          7.8750:   Bit Size                   
 MW    .LB/USGAL    9.3000:   Mud Weight                 
 RM    .OHM-M       3.7400:   Mud Resistivity            
 RMMT  .DEG.F      70.0000:   Mud Resistivity Meas. Temp.
 RMF   .OHM-M       3.1800:   Mud Filtrate Resistivity   
 RMFMT .DEG.F      70.0000:   Mud Filtrate Res.Meas.Temp.
 RMC   .OHM-M       5.6100:   Mud Cake Resistivity       
 RMCMT .DEG.F      70.0000:   Mud Cake Res. Meas. Temp.  
 RW    .OHM-M        .0539:   Formation Water Resistivity
 RWMT  .DEG.F      75.0000:   Formation Water Res.M.Temp.
 SALFM .PPM      150000.00:   Formation Water Salinity   
~CURVE INFORMATION
#MNEM.UNIT       API Code     Curve Description          
#---------    -------------   -------------------------- 
 DEPTH .FT                    : Depth                                   
 CALI  .INS                   : Caliper (from density)                  
 DLT   .US/FT                 : Borehole Compensated Sonic Travel Time  
 GR    .API                   : Gamma Ray                               
 RILD  .OHMM                  : Deep Induction Resistivity              
 RILM  .OHMM                  : Medium Induction Resistivity            
 MINV  .OHMM                  : Microlog Inverse Resistivity            
 MNOR  .OHMM                  : Microlog Normal Resistivity             
 NPHI  .PU                    : Compensated Neutron (Limestone)         
 PEF   .B/E                   : Photoelectric Effect                    
 RHOB  .G/CC                  : Formation Density Compensated           
 RSFL  .OHMM                  : Spherically Focused Resitivity          
 SFLU  .OHMM                  : Spherically Focused Resitivity (Unaveraged)
 SP    .MV                    : Spontaneous Potential                   
~A Log Data Section - Number of Curves =    14
# ...
 5376.5000
     8.073100    63.799999    80.446663     5.945800     7.326000    30.568199
    28.055799    18.919609     3.520248     2.598487    17.695999    17.696199
   -15.840037                                                                 
 5377.0000
     8.039200    58.799999    63.494461     7.121000     9.511600    26.666599
    23.799700    10.955518     3.850929     2.637802    30.211000    30.211000
   -16.112366                                                                 
 5377.5000
     8.032500    62.400002    54.884678     9.703600    11.884200    26.856899
    24.743799     8.739532     4.213048     2.683720    34.157001    34.157200
   -16.078325                                                                 
 5378.0000
     8.016100    60.200001    50.045731    12.491300    14.755400    24.903299
    22.293600     8.163906     4.077506     2.700103    35.443001    35.443001
   -15.533667                                                                 
 5378.5000
     8.045800    60.299999    47.162289    15.032600    17.495701    23.811701
    17.842600     7.562304     4.123819     2.693670    34.652000    34.651901
   -15.567707                                                                 
 5379.0000
     8.004100    60.400002    43.050785    17.059200    19.403500    30.680201
    19.348700     7.561787     4.297458     2.682934    32.270000    32.269501
   -15.329419                                                                 
 5379.5000
     8.027700    60.500000    41.461849    17.513800    20.733299    32.936001
    21.581699     7.759883     4.435470     2.666429    32.441002    32.440899
   -14.818801                                                                 
 5380.0000
     7.997000    60.700001    41.798969    16.945999    20.537201    31.889299
    22.375999     8.003301     4.601115     2.658088    34.021999    34.022400
   -15.227295                                                                 
 5380.5000
     7.985100    60.099998    43.908672    16.289700    19.558701    29.084801
    21.401899     8.276172     4.691784     2.657951    36.622002    36.622299
   -15.669831                                                                 
 5381.0000
     7.971700    60.599998    47.342682    16.202999    18.275000    26.733801
    19.895700     8.555088     4.715869     2.655462    34.862000    34.862499
   -16.044285                                                                 
 5381.5000
     7.981800    60.599998    48.783249    16.080601    17.991600    23.610201
    17.108299     8.836474     4.430948     2.647645    32.320999    32.320702
   -15.908119                                                                 
 5382.0000
     7.956700    62.099998    50.059288    15.988800    18.301800    24.819300
    18.966600     8.996407     4.280787     2.646521    29.193001    29.193100
   -15.771955                                                                 
 5382.5000
     7.923300    61.900002    46.324509    15.738500    18.305500    27.198400
    20.959801     9.087655     4.355160     2.655822    29.254000    29.254400
   -15.601748                                                                 
 5383.0000
     7.917500    61.000000    47.424679    15.579300    18.067200    31.279100
    23.042900     8.453261     4.530006     2.678401    29.681999    29.681801
   -15.227295                                                                 
 5383.5000
     7.892100    61.400002    41.389660    15.485400    17.762600    30.014000
    22.690701     7.806260     4.523852     2.681992    30.379000    30.378599
   -14.954966                                                                 
 5384.0000
     7.911700    61.400002    41.427650    15.508300    17.651300    23.839701
    19.348700     7.702676     4.790398     2.674789    30.546000    30.546301
   -14.852842                                                                 
 5384.5000
     7.903400    61.099998    44.146172    15.754900    17.908001    21.421499
    16.284000     7.961094     4.822091     2.682093    30.120001    30.120001
   -15.125172                                                                 
 5385.0000
     7.900700    60.799999    49.548557    16.013300    18.493200    25.742901
    18.629400     8.264960     4.710322     2.675901    30.146999    30.147100
   -15.499625                                                                 
 5385.5000
     7.900700    60.599998    50.666267    16.143999    19.019501    27.299101
    21.424400     8.230615     4.610331     2.660174    31.120001    31.119900
   -15.669831                                                                 
 5386.0000
     7.896600    60.200001    49.587776    16.167900    19.247700    28.278700
    22.121201     7.757471     4.712070     2.655821    32.994999    32.994801
   -15.976202                                                                 
 5386.5000
     7.900700    61.000000    47.766041    16.063801    19.083300    25.110399
    20.128000     7.250801     4.888875     2.653198    34.069000    34.068802
   -16.418737                                                                 
 5387.0000
     7.907800    60.900002    47.103012    16.024799    18.582300    22.277901
    16.703600     7.470625     4.883692     2.639578    33.146999    33.147099
   -16.725107                                                                 
 5387.5000
     7.887900    61.700001    48.155132    15.645600    18.083099    26.526600
    17.880100     7.763086     4.772944     2.624229    31.349001    31.348900
   -16.622984                                                                 
 5388.0000
     7.905800    62.200001    52.389725    15.192300    17.243500    24.606600
    16.284000     8.222724     4.851776     2.621340    28.421000    28.421301
   -16.010242                                                                 
 5388.5000
     7.907800    63.299999    52.873699    14.867000    16.414000    19.518299
    13.166900     8.594844     4.734239     2.629076    26.247999    26.247900
   -15.908119                                                                 
 5389.0000
     7.900700    64.000000    55.658554    14.712400    15.965500    15.443100
    12.267700    10.007442     4.789454     2.629375    24.362000    24.362301
   -15.601748                                                                 
 5389.5000
     7.908600    62.900002    53.961651    14.646600    15.924000    19.876499
    16.156601     9.608008     4.799084     2.655006    22.694000    22.693701
   -15.465584                                                                 
 5390.0000
     7.894700    63.599998    56.004044    14.579100    16.194799    22.283501
    18.134899     8.843711     4.703011     2.674866    22.754000    22.754499
   -14.852842                                                                 
 5390.5000
     7.895600    62.000000    54.545235    14.546500    16.605000    21.869301
    16.801100     7.878203     4.530172     2.693476    25.798000    25.798300
   -14.682636                                                                 
 5391.0000
     7.910700    60.700001    56.272690    14.657900    16.461700    21.544600
    16.418900     7.470313     4.445156     2.705700    29.472000    29.471701
   -14.852842                                                                 
 5391.5000
     7.949200    61.599998    56.576740    14.850700    16.501200    25.950100
    17.183201     7.422979     4.432384     2.709844    30.760000    30.760401
   -14.818801                                                                 
 5392.0000
     7.932000    60.400002    54.813419    15.355900    16.633301    24.981600
    14.373300     7.540000     4.634064     2.712846    28.202999    28.202900
   -14.172018                                                                 
 5392.5000
     7.946300    61.000000    51.057484    15.987400    17.535500    23.968500
    14.343300     7.275938     4.784157     2.711895    26.629000    26.628901
   -14.614553                                                                 
