~VERSION INFORMATION
 VERS.                 2.0:   CWLS Log Ascii Standard    
 WRAP.                 YES:   Multiple Lines per Depth   
~WELL INFORMATION
#MNEM.UNIT              DATA                DESCRIPTION OF MNEMONIC  
#---------              ----                -----------------------  
 STRT  .FT         4700.0000                :Top Depth  
 STOP  .FT         5740.0000                :Bottom Depth  
 STEP  .FT             .5000                :Increment  
 NULL  .          -99999.000                :Null Value  
 COMP  .  Threshold Development             :Company   
 FLD   .  WILDCAT                           :Field  
 STAT  .  TEXAS                             :State  
 SRVC  .  SCHLUMBERGER                      :Service Company  
 WELL  .  B YATES 18D                       :Well  
 UWI   .  422373813000                      :Unique Well ID  
~PARAMETER INFORMATION
#MNEM.UNIT        Value       Description                
#---------    -------------   -------------------------- 
 RUN   .                 1:   Run Number                 
 DATUM .FT       1040.0000:   Datum                      
 AMST  .DEG.F      80.0000:   Annual Mean Surface Temp.  
 BHT   .DEG.F     137.0000:   Bottom Hole Temperature    
 TD    .FT       5750.0000:   Loggers Total Depth        
 BITSIZ.IN          7.8750:   Bit Size                   
 MW    .LB/USGAL    9.3000:   Mud Weight                 
 RM    .OHM-M       3.7400:   Mud Resistivity            
 RMMT  .DEG.F      70.0000:   Mud Resistivity Meas. Temp.
 RMF   .OHM-M       3.1800:   Mud Filtrate Resistivity   
 RMFMT .DEG.F      70.0000:   Mud Filtrate Res.Meas.Temp.
 RMC   .OHM-M       5.6100:   Mud Cake Resistivity       
 RMCMT .DEG.F      70.0000:   Mud Cake Res. Meas. Temp.  
 RW    .OHM-M        .0539:   Formation Water Resistivity
 RWMT  .DEG.F      75.0000:   Formation Water Res.M.Temp.
 SALFM .PPM      150000.00:   Formation Water Salinity   
~CURVE INFORMATION
#MNEM.UNIT       API Code     Curve Description          
#---------    -------------   -------------------------- 
 DEPTH .FT                    : Depth                                   
 CALI  .INS                   : Caliper (from density)                  
 DLT   .US/FT                 : Borehole Compensated Sonic Travel Time  
 GR    .API                   : Gamma Ray                               
 RILD  .OHMM                  : Deep Induction Resistivity              
 RILM  .OHMM                  : Medium Induction Resistivity            
 MINV  .OHMM                  : Microlog Inverse Resistivity            
 MNOR  .OHMM                  : Microlog Normal Resistivity             
 NPHI  .PU                    : Compensated Neutron (Limestone)         
 PEF   .B/E                   : Photoelectric Effect                    
 RHOB  .G/CC                  : Formation Density Compensated           
 RSFL  .OHMM                  : Spherically Focused Resitivity          
 SFLU  .OHMM                  : Spherically Focused Resitivity (Unaveraged)
 SP    .MV                    : Spontaneous Potential                   
~A Log Data Section - Number of Curves =    14
# ...
 5310.5000
     7.908100    69.300003    89.552528     6.826200     7.707400    18.852200
    13.901200    17.837969     3.298873     2.619040     8.652000     8.651800
   -17.984632                                                                 
 5311.0000
     7.900700    68.500000    90.425156     7.478700     8.462400    18.113300
    13.601500    17.644043     3.257316     2.628132     9.691000     9.691300
   -18.154839                                                                 
 5311.5000
     7.944200    67.500000    99.629257     8.210200     9.075600    15.269600
    11.376000    19.605625     3.323430     2.633330    11.605000    11.605200
   -19.073952                                                                 
 5312.0000
     7.936200    68.199997   112.043877     9.084700     9.648700    13.629500
    10.514300    22.159784     3.435977     2.615057    13.342000    13.341500
   -19.584568                                                                 
 5312.5000
     7.932000    71.199997   117.655113     9.985400    10.680600    12.381200
    10.244600    22.872931     3.437231     2.604434    13.050000    13.049800
   -20.878134                                                                 
 5313.0000
     7.921000    71.300003   107.326874    11.059600    12.498700    23.341600
    18.719400    19.661697     3.242572     2.604126    13.069000    13.069500
   -21.899370                                                                 
 5313.5000
     7.878000    70.199997    84.136345    12.277200    14.464000    37.190399
    33.143700    15.440039     3.052844     2.601097    15.623000    15.622500
   -24.180130                                                                 
 5314.0000
     7.930000    70.199997    66.950325    13.194800    15.860300    31.749399
    30.004101    14.534297     2.855420     2.580054    22.846001    22.845900
   -27.005550                                                                 
 5314.5000
     7.877800    70.900002    58.936745    14.485100    16.378401    16.853800
    16.681200    16.868887     2.713676     2.530357    29.166000    29.165600
   -31.022411                                                                 
 5315.0000
     7.870100    74.900002    55.720219    17.022301    17.188999    13.456000
    14.972800    17.917255     2.637827     2.476677    25.395000    25.395399
   -33.779751                                                                 
 5315.5000
     7.814500    74.900002    49.157303    19.579700    21.253700    10.864200
    15.864500    15.450781     2.646091     2.447118    20.138000    20.137600
   -37.115788                                                                 
 5316.0000
     7.740600    74.500000    41.731251    22.786501    27.889299     7.298500
    13.361700    11.911192     2.742772     2.445181    22.777000    22.776501
   -39.328465                                                                 
 5316.5000
     7.723900    71.699997    35.708858    26.076099    35.036900     7.197700
    12.679900    10.515938     2.883919     2.452653    43.895000    43.894600
   -41.983677                                                                 
 5317.0000
     7.746400    72.099998    30.411980    28.965300    43.017700     7.835800
    13.669000    10.397822     2.959700     2.459593    86.133003    86.133003
   -44.468685                                                                 
 5317.5000
     7.867900    68.699997    26.428963    34.441700    49.095600    12.375600
    20.922400    10.263496     2.943676     2.480775   132.895996   132.896194
   -47.396229                                                                 
 5318.0000
     7.890600    66.599998    25.761747    42.999401    59.167500    14.245300
    26.886900     9.802071     2.884513     2.512061   168.507004   168.506607
   -48.587669                                                                 
 5318.5000
     7.857600    64.099998    27.552082    50.238300    76.384300    10.825000
    22.870600     9.756856     2.736163     2.518244   193.251999   193.251999
   -48.962124                                                                 
 5319.0000
     7.770200    64.199997    29.148762    56.215599    88.572601     7.964600
    13.669000     9.940576     2.532182     2.484951   223.960007   223.960297
   -48.077053                                                                 
 5319.5000
     7.753700    66.900002    27.988188    61.673599    94.615402     8.043000
    13.204400     9.819062     2.396012     2.441796   225.134995   225.134705
   -47.634518                                                                 
 5320.0000
     7.759300    68.000000    24.579891    64.261200   101.477798     7.919800
    13.736400     8.901015     2.365875     2.418393   192.953003   192.952896
   -46.477116                                                                 
 5320.5000
     7.814500    69.199997    19.830040    65.692802   112.003700     7.740700
    13.953700     8.389999     2.319318     2.410320   170.938004   170.938095
   -44.843140                                                                 
 5321.0000
     7.842400    67.500000    18.881212    66.570099   118.190201     7.718300
    14.088600     8.054082     2.366084     2.408651   206.626999   206.627396
   -43.107037                                                                 
 5321.5000
     7.839800    67.199997    21.097658    66.801399   120.792297     7.847000
    14.290900     8.047988     2.417394     2.411310   261.950012   261.950104
   -42.324089                                                                 
 5322.0000
     7.789200    66.000000    25.147434    66.291298   126.146500     7.819000
    14.425800     8.127188     2.433913     2.412047   306.123993   306.123810
   -41.847515                                                                 
 5322.5000
     7.766600    65.300003    26.760067    66.249199   138.632004     7.533600
    13.916200     8.379532     2.474981     2.417260   348.868988   348.869385
   -42.221966                                                                 
 5323.0000
     7.792400    64.800003    27.298738    66.780899   150.676300     7.600700
    13.736400     8.406435     2.537335     2.431875   403.679993   403.680206
   -43.243202                                                                 
 5323.5000
     7.743500    64.199997    27.215940    66.895897   154.690308     7.466400
    13.826300     8.310508     2.497890     2.450422   477.307007   477.306885
   -44.264439                                                                 
 5324.0000
     7.644200    64.199997    30.191391    67.382103   154.489502     7.046600
    13.301800     8.333476     2.537897     2.476769   512.932007   512.932007
   -45.217594                                                                 
 5324.5000
     7.784100    65.800003    29.769745    67.732201   145.601898     7.320900
    13.316800     8.476171     2.609581     2.522552   472.434998   472.435394
   -46.170746                                                                 
 5325.0000
     7.753700    64.000000    29.591215    69.757500   147.034302     9.112100
    15.444800     8.573115     2.576427     2.558615   408.664001   408.664490
   -46.715405                                                                 
 5325.5000
     7.787900    61.400002    26.986822    71.058998   138.990799    11.233700
    17.820200     8.551230     2.649327     2.577453   371.003998   371.003998
   -46.919651                                                                 
 5326.0000
     7.758700    62.200001    27.946075    68.453201   134.989700    11.345600
    18.539499     9.087148     2.662947     2.594756   381.567993   381.568390
   -46.579239                                                                 
 5326.5000
     7.761300    62.099998    26.656519    64.046402   130.737000     9.515200
    16.291599     9.708222     2.625027     2.579595   457.950012   457.950287
   -45.898415                                                                 
