~VERSION INFORMATION
 VERS.                 2.0:   CWLS Log Ascii Standard    
 WRAP.                 YES:   Multiple Lines per Depth   
~WELL INFORMATION
#MNEM.UNIT              DATA                DESCRIPTION OF MNEMONIC  
#---------              ----                -----------------------  
 STRT  .FT         4700.0000                :Top Depth  
 STOP  .FT         5740.0000                :Bottom Depth  
 STEP  .FT             .5000                :Increment  
 NULL  .          -99999.000                :Null Value  
 COMP  .  Threshold Development             :Company   
 FLD   .  WILDCAT                           :Field  
 STAT  .  TEXAS                             :State  
 SRVC  .  SCHLUMBERGER                      :Service Company  
 WELL  .  B YATES 18D                       :Well  
 UWI   .  422373813000                      :Unique Well ID  
~PARAMETER INFORMATION
#MNEM.UNIT        Value       Description                
#---------    -------------   -------------------------- 
 RUN   .                 1:   Run Number                 
 DATUM .FT       1040.0000:   Datum                      
 AMST  .DEG.F      80.0000:   Annual Mean Surface Temp.  
 BHT   .DEG.F     137.0000:   Bottom Hole Temperature    
 TD    .FT       5750.0000:   Loggers Total Depth        
 BITSIZ.IN          7.8750:   Bit Size                   
 MW    .LB/USGAL    9.3000:   Mud Weight                 
 RM    .OHM-M       3.7400:   Mud Resistivity            
 RMMT  .DEG.F      70.0000:   Mud Resistivity Meas. Temp.
 RMF   .OHM-M       3.1800:   Mud Filtrate Resistivity   
 RMFMT .DEG.F      70.0000:   Mud Filtrate Res.Meas.Temp.
 RMC   .OHM-M       5.6100:   Mud Cake Resistivity       
 RMCMT .DEG.F      70.0000:   Mud Cake Res. Meas. Temp.  
 RW    .OHM-M        .0539:   Formation Water Resistivity
 RWMT  .DEG.F      75.0000:   Formation Water Res.M.Temp.
 SALFM .PPM      150000.00:   Formation Water Salinity   
~CURVE INFORMATION
#MNEM.UNIT       API Code     Curve Description          
#---------    -------------   -------------------------- 
 DEPTH .FT                    : Depth                                   
 CALI  .INS                   : Caliper (from density)                  
 DLT   .US/FT                 : Borehole Compensated Sonic Travel Time  
 GR    .API                   : Gamma Ray                               
 RILD  .OHMM                  : Deep Induction Resistivity              
 RILM  .OHMM                  : Medium Induction Resistivity            
 MINV  .OHMM                  : Microlog Inverse Resistivity            
 MNOR  .OHMM                  : Microlog Normal Resistivity             
 NPHI  .PU                    : Compensated Neutron (Limestone)         
 PEF   .B/E                   : Photoelectric Effect                    
 RHOB  .G/CC                  : Formation Density Compensated           
 RSFL  .OHMM                  : Spherically Focused Resitivity          
 SFLU  .OHMM                  : Spherically Focused Resitivity (Unaveraged)
 SP    .MV                    : Spontaneous Potential                   
~A Log Data Section - Number of Curves =    14
# ...
 5657.0000
     8.009200    74.199997    80.996391     8.242900     8.947500     7.219900
     8.910600    15.786230     3.482682     2.583455    12.633000    12.633400
   -15.751215                                                                 
 5657.5000
     8.042600    74.000000    84.796577     8.179300     8.816300     8.322600
     9.172900    15.091290     3.396962     2.580336    12.299000    12.298700
   -15.830770                                                                 
 5658.0000
     8.054300    74.800003    86.728867     7.994700     8.691500     9.240700
     9.719900    14.935079     3.376404     2.582780    11.871000    11.871300
   -16.829441                                                                 
 5658.5000
     8.074900    74.800003    85.601326     7.754600     8.431400     9.537400
     9.502600    15.193067     3.481023     2.591552    11.494000    11.494100
   -17.215366                                                                 
 5659.0000
     8.101700    75.500000    84.219719     7.576500     7.982500     9.537400
     8.198800    15.727646     3.429228     2.595400    11.198000    11.198500
   -17.056633                                                                 
 5659.5000
     8.101200    76.400002    88.692863     7.409900     7.734600     9.671700
     6.999900    15.784775     3.302581     2.597215    10.295000    10.295400
   -16.251118                                                                 
 5660.0000
     8.098400    76.599998    90.836296     7.283100     7.673300     9.570900
     7.187200    16.048429     3.192129     2.593906     9.692000     9.691800
   -15.888138                                                                 
 5660.5000
     8.126000    75.699997    95.348381     7.188700     7.567300     9.543000
     7.367000    16.108536     3.211823     2.593719     9.871000     9.870700
   -16.274065                                                                 
 5661.0000
     8.113600    75.900002    90.115685     7.055600     7.489200     9.285500
     7.052300    16.714130     3.086824     2.596235    10.043000    10.042700
   -15.740878                                                                 
 5661.5000
     8.127800    76.500000    89.084862     6.976500     7.412400     9.347000
     6.909900    17.847736     3.058979     2.598128    10.031000    10.031200
   -15.411940                                                                 
 5662.0000
     8.122600    77.300003    87.638237     6.921800     7.323500     9.772500
     7.082300    18.729570     3.163897     2.605803     9.960000     9.959500
   -14.572385                                                                 
 5662.5000
     8.135000    76.699997    89.527351     6.824600     7.239700     9.666100
     7.172200    18.518164     3.260952     2.607437    10.086000    10.086200
   -14.311528                                                                 
 5663.0000
     8.138700    76.900002    93.960495     6.649100     7.114200     9.610100
     7.172200    17.937225     3.216107     2.604728    10.249000    10.248700
   -14.765536                                                                 
 5663.5000
     8.179500    77.900002    98.352585     6.413000     6.929900     9.335800
     6.775100    17.978476     3.319157     2.598218    10.137000    10.136800
   -15.185504                                                                 
 5664.0000
     8.287500    79.199997    98.129692     6.134400     6.633000     8.882400
     6.340400    18.742676     3.344517     2.604504     9.541000     9.541400
   -15.877801                                                                 
 5664.5000
     8.267300    78.900002    97.613998     5.964500     6.194700     8.496200
     6.070700    19.210724     3.373381     2.605477     8.892000     8.891800
   -15.923316                                                                 
 5665.0000
     8.361200    80.800003    91.742165     5.804400     5.912800     7.942000
     5.628600    19.858007     3.324381     2.615916     8.470000     8.470400
   -16.275200                                                                 
 5665.5000
     8.343800    82.400002    94.816147     5.740600     5.640900     7.007200
     5.328900    20.059139     3.268115     2.620338     7.608000     7.608100
   -17.716404                                                                 
 5666.0000
     8.376400    81.800003    98.868515     5.740500     5.541700     5.249500
     4.459700    19.504648     3.132056     2.618732     6.915000     6.914600
   -18.885281                                                                 
 5666.5000
     8.312800    80.599998   103.839348     5.671400     5.800400     4.801700
     4.002600    19.581699     3.111155     2.603491     6.630000     6.630000
   -19.849907                                                                 
 5667.0000
     8.173000    76.099998   110.655022     5.427800     6.046100     8.888000
     6.333000    21.566298     3.174488     2.613312     9.275000     9.275100
   -20.814533                                                                 
 5667.5000
     8.041000    80.000000   117.524124     5.212900     5.617000    14.541700
     9.615000    22.761591     3.215539     2.627209    11.411000    11.411500
   -21.370667                                                                 
 5668.0000
     7.965600    90.900002   119.777191     5.130100     5.162800    10.998400
     7.599300    21.929287     3.204768     2.628606    10.845000    10.844700
   -22.267210                                                                 
 5668.5000
     8.148600    94.900002   118.140648     5.190500     5.008500     3.978800
     3.665400    19.986670     3.183834     2.598194     7.200000     7.200300
   -23.061630                                                                 
 5669.0000
     8.443100   106.000000   122.886040     5.291700     5.130800     3.100000
     3.110900    22.952902     3.177427     2.529491     6.413000     6.412600
   -25.149618                                                                 
 5669.5000
     8.481000   109.199997   142.105698     5.417400     5.148500     4.482600
     3.815200    30.640450     3.171373     2.450816     6.524000     6.523700
   -26.046162                                                                 
 5670.0000
     8.340800   106.800003   165.240219     5.578200     5.187300     7.175100
     4.287300    36.436806     3.174616     2.380890     6.500000     6.499700
   -26.874626                                                                 
 5670.5000
     7.905500    97.699997   176.618942     5.740500     5.857900    13.808400
     8.003900    39.641727     3.163364     2.311473     6.540000     6.540400
   -27.703087                                                                 
 5671.0000
     7.860100    91.599998   176.644424     6.010200     6.711300    14.177900
     9.667400    42.409069     3.091978     2.242217     7.910000     7.910000
   -29.008127                                                                 
 5671.5000
     7.825800    82.000000   171.051331     6.240900     7.059000     9.604500
     9.090500    49.554668     2.994112     2.217027    12.257000    12.256900
   -31.096113                                                                 
 5672.0000
     7.862600    72.400002   171.678970     6.409300     6.961400     8.568900
     7.869100    48.643860     2.829243     2.223543    13.601000    13.600700
   -33.252182                                                                 
 5672.5000
     7.630900    73.699997   158.952881     7.032500     6.941000     8.927200
     7.876500    40.190861     2.546059     2.271209    10.325000    10.324600
   -39.288948                                                                 
 5673.0000
     7.488700    75.099998   143.646988     7.990100     7.435900     8.289100
     8.685800    26.376055     2.342059     2.345384     8.532000     8.531900
   -47.436268                                                                 
