~VERSION INFORMATION
 VERS.                 2.0:   CWLS Log Ascii Standard    
 WRAP.                 YES:   Multiple Lines per Depth   
~WELL INFORMATION
#MNEM.UNIT              DATA                DESCRIPTION OF MNEMONIC  
#---------              ----                -----------------------  
 STRT  .FT         4700.0000                :Top Depth  
 STOP  .FT         5740.0000                :Bottom Depth  
 STEP  .FT             .5000                :Increment  
 NULL  .          -99999.000                :Null Value  
 COMP  .  Threshold Development             :Company   
 FLD   .  WILDCAT                           :Field  
 STAT  .  TEXAS                             :State  
 SRVC  .  SCHLUMBERGER                      :Service Company  
 WELL  .  B YATES 18D                       :Well  
 UWI   .  422373813000                      :Unique Well ID  
~PARAMETER INFORMATION
#MNEM.UNIT        Value       Description                
#---------    -------------   -------------------------- 
 RUN   .                 1:   Run Number                 
 DATUM .FT       1040.0000:   Datum                      
 AMST  .DEG.F      80.0000:   Annual Mean Surface Temp.  
 BHT   .DEG.F     137.0000:   Bottom Hole Temperature    
 TD    .FT       5750.0000:   Loggers Total Depth        
 BITSIZ.IN          7.8750:   Bit Size                   
 MW    .LB/USGAL    9.3000:   Mud Weight                 
 RM    .OHM-M       3.7400:   Mud Resistivity            
 RMMT  .DEG.F      70.0000:   Mud Resistivity Meas. Temp.
 RMF   .OHM-M       3.1800:   Mud Filtrate Resistivity   
 RMFMT .DEG.F      70.0000:   Mud Filtrate Res.Meas.Temp.
 RMC   .OHM-M       5.6100:   Mud Cake Resistivity       
 RMCMT .DEG.F      70.0000:   Mud Cake Res. Meas. Temp.  
 RW    .OHM-M        .0539:   Formation Water Resistivity
 RWMT  .DEG.F      75.0000:   Formation Water Res.M.Temp.
 SALFM .PPM      150000.00:   Formation Water Salinity   
~CURVE INFORMATION
#MNEM.UNIT       API Code     Curve Description          
#---------    -------------   -------------------------- 
 DEPTH .FT                    : Depth                                   
 CALI  .INS                   : Caliper (from density)                  
 DLT   .US/FT                 : Borehole Compensated Sonic Travel Time  
 GR    .API                   : Gamma Ray                               
 RILD  .OHMM                  : Deep Induction Resistivity              
 RILM  .OHMM                  : Medium Induction Resistivity            
 MINV  .OHMM                  : Microlog Inverse Resistivity            
 MNOR  .OHMM                  : Microlog Normal Resistivity             
 NPHI  .PU                    : Compensated Neutron (Limestone)         
 PEF   .B/E                   : Photoelectric Effect                    
 RHOB  .G/CC                  : Formation Density Compensated           
 RSFL  .OHMM                  : Spherically Focused Resitivity          
 SFLU  .OHMM                  : Spherically Focused Resitivity (Unaveraged)
 SP    .MV                    : Spontaneous Potential                   
~A Log Data Section - Number of Curves =    14
# ...
 5112.5000
     8.304900    76.099998   127.837044    12.334700    12.424200     8.082200
     7.816800    25.281523     3.595553     2.657637    16.670000    16.669500
   -15.729191                                                                 
 5113.0000
     8.324300    78.599998   130.863342    11.687400    11.821600     9.884700
     7.764400    27.591484     3.576638     2.701247    15.123000    15.122700
   -15.373483                                                                 
 5113.5000
     8.292200    79.500000   131.097092    11.087200    11.582900    12.482000
     8.686000    28.687763     3.479941     2.696136    15.258000    15.258200
   -15.460312                                                                 
 5114.0000
     8.286000    81.400002   137.806793    10.840800    11.514200    14.838700
     9.712600    30.953730     3.391879     2.682575    16.796000    16.796400
   -15.581181                                                                 
 5114.5000
     8.165400    77.599998   134.001022    10.889100    11.604400    15.667200
    10.746700    32.151917     3.287317     2.668719    17.612000    17.612000
   -15.463760                                                                 
 5115.0000
     8.121500    76.300003   136.165604    11.221100    12.123300    18.824301
    14.485800    30.688885     3.136158     2.656232    18.240000    18.240400
   -15.448465                                                                 
 5115.5000
     8.118700    75.400002   123.218819    11.607300    12.875500    21.348900
    16.269100    27.263817     3.025335     2.636332    18.875999    18.875700
   -15.399128                                                                 
 5116.0000
     8.027700    74.000000   116.621956    12.103500    13.567200    19.932600
    13.189500    24.989872     3.080902     2.617959    20.888000    20.888201
   -15.485957                                                                 
 5116.5000
     8.047700    74.099998   102.555038    12.645000    14.071000    21.348900
    13.256900    24.743750     3.138288     2.619038    22.923000    22.922600
   -15.504702                                                                 
 5117.0000
     8.113600    73.300003   103.866913    13.184900    14.841700    22.362000
    13.833900    25.858515     3.073373     2.635044    22.813000    22.813000
   -15.693654                                                                 
 5117.5000
     8.418400    73.199997   110.494598    13.914900    15.392600    21.673500
    13.923800    25.519844     3.117816     2.648907    22.214001    22.214100
   -15.746440                                                                 
 5118.0000
     8.509100    73.099998   119.030624    14.306400    15.854700    22.121300
    14.343400    24.462627     3.108317     2.659805    22.020000    22.020000
   -15.731144                                                                 
 5118.5000
     8.535600    72.800003   124.450920    14.451600    16.332199    23.666300
    15.032800    22.665792     2.919176     2.672167    22.283001    22.283199
   -15.443520                                                                 
 5119.0000
     8.564800    73.099998   127.797249    14.406100    16.462000    23.593599
    15.235100    22.426525     2.850225     2.658355    23.025000    23.025499
   -14.917605                                                                 
 5119.5000
     8.568100    74.000000   135.039871    14.267100    16.228399    21.925400
    13.991200    22.832479     2.925214     2.654460    23.413000    23.413401
   -15.140598                                                                 
 5120.0000
     8.571000    73.300003   129.072632    13.895600    15.834300    19.815100
    12.679900    23.860821     3.085495     2.669293    22.684000    22.684099
   -15.635921                                                                 
 5120.5000
     8.615500    75.400002   120.023453    13.553900    15.379700    19.333700
    12.005500    25.313358     3.238790     2.690253    20.806999    20.806700
   -15.484461                                                                 
 5121.0000
     8.654400    75.599998   115.920837    13.102100    14.580900    17.564800
    10.851600    27.193293     3.307256     2.703772    19.993999    19.993900
   -16.286154                                                                 
 5121.5000
     8.673000    75.599998   125.415428    12.250300    13.834700    16.456400
    10.012300    27.851601     3.383316     2.711168    19.024000    19.023899
   -17.019764                                                                 
 5122.0000
     8.696600    76.699997   128.654602    11.429100    12.927000    14.877900
     9.030700    27.382032     3.546217     2.697973    18.084999    18.084900
   -17.072552                                                                 
 5122.5000
     8.684700    78.800003   128.795700    10.651500    11.918200    11.065800
     7.816800    28.824434     3.359150     2.677550    16.396000    16.395700
   -16.853008                                                                 
 5123.0000
     8.701700    79.000000   125.720665     9.828200    10.822600     6.526000
     6.430600    30.504639     3.353419     2.654204    14.510000    14.510000
   -17.246206                                                                 
 5123.5000
     8.686500    80.800003   127.767746     9.033000     9.421800     4.124600
     5.329100    31.483147     3.282817     2.644082    13.099000    13.098800
   -17.605364                                                                 
 5124.0000
     8.732100    81.900002   132.319977     8.145600     8.536900     3.189800
     4.272600    31.730255     3.146169     2.618010    11.692000    11.692200
   -17.658152                                                                 
 5124.5000
     8.787000    82.599998   138.833221     7.639400     7.874500     3.044300
     3.980300    35.906906     2.994324     2.596130     9.885000     9.884600
   -18.323679                                                                 
 5125.0000
     8.853100    83.500000   131.929977     7.276600     7.265500     3.329800
     4.017800    35.172539     3.003018     2.576799     9.039000     9.039200
   -18.444550                                                                 
 5125.5000
     8.915700    86.099998   130.392273     6.906700     7.002800     3.872700
     4.227600    36.551746     2.876536     2.581257     8.318000     8.318000
   -18.531376                                                                 
 5126.0000
     8.985600    83.300003   123.031204     6.747400     6.887800     3.671200
     3.733000    33.237579     2.932550     2.561433     8.068000     8.068000
   -18.788410                                                                 
 5126.5000
     9.026700    82.500000   126.873817     6.647200     6.892000     4.068600
     3.808000    35.880783     3.044229     2.547850     8.228000     8.227700
   -18.773115                                                                 
 5127.0000
     9.208700    83.300003   123.929665     6.509800     6.987700     4.158200
     3.912900    35.003605     3.126950     2.554485     8.714000     8.713500
   -18.587612                                                                 
 5127.5000
     8.909600    82.300003   123.773689     6.415900     6.992000     4.706800
     4.040300    34.500381     3.115492     2.565392     9.580000     9.579500
   -18.640400                                                                 
 5128.0000
     8.680400    83.699997   127.330696     6.426100     6.889100     4.404500
     4.017800    34.084396     3.162111     2.571338     9.272000     9.272400
   -18.931475                                                                 
 5128.5000
     8.879900    83.699997   128.938782     6.469100     6.877000     3.883900
     3.965300    33.540409     3.184400     2.616882     9.343000     9.342700
   -19.494881                                                                 
