~VERSION INFORMATION
 VERS.                 2.0:   CWLS Log Ascii Standard    
 WRAP.                 YES:   Multiple Lines per Depth   
~WELL INFORMATION
#MNEM.UNIT              DATA                DESCRIPTION OF MNEMONIC  
#---------              ----                -----------------------  
 STRT  .FT         4700.0000                :Top Depth  
 STOP  .FT         5740.0000                :Bottom Depth  
 STEP  .FT             .5000                :Increment  
 NULL  .          -99999.000                :Null Value  
 COMP  .  Threshold Development             :Company   
 FLD   .  WILDCAT                           :Field  
 STAT  .  TEXAS                             :State  
 SRVC  .  SCHLUMBERGER                      :Service Company  
 WELL  .  B YATES 18D                       :Well  
 UWI   .  422373813000                      :Unique Well ID  
~PARAMETER INFORMATION
#MNEM.UNIT        Value       Description                
#---------    -------------   -------------------------- 
 RUN   .                 1:   Run Number                 
 DATUM .FT       1040.0000:   Datum                      
 AMST  .DEG.F      80.0000:   Annual Mean Surface Temp.  
 BHT   .DEG.F     137.0000:   Bottom Hole Temperature    
 TD    .FT       5750.0000:   Loggers Total Depth        
 BITSIZ.IN          7.8750:   Bit Size                   
 MW    .LB/USGAL    9.3000:   Mud Weight                 
 RM    .OHM-M       3.7400:   Mud Resistivity            
 RMMT  .DEG.F      70.0000:   Mud Resistivity Meas. Temp.
 RMF   .OHM-M       3.1800:   Mud Filtrate Resistivity   
 RMFMT .DEG.F      70.0000:   Mud Filtrate Res.Meas.Temp.
 RMC   .OHM-M       5.6100:   Mud Cake Resistivity       
 RMCMT .DEG.F      70.0000:   Mud Cake Res. Meas. Temp.  
 RW    .OHM-M        .0539:   Formation Water Resistivity
 RWMT  .DEG.F      75.0000:   Formation Water Res.M.Temp.
 SALFM .PPM      150000.00:   Formation Water Salinity   
~CURVE INFORMATION
#MNEM.UNIT       API Code     Curve Description          
#---------    -------------   -------------------------- 
 DEPTH .FT                    : Depth                                   
 CALI  .INS                   : Caliper (from density)                  
 DLT   .US/FT                 : Borehole Compensated Sonic Travel Time  
 GR    .API                   : Gamma Ray                               
 RILD  .OHMM                  : Deep Induction Resistivity              
 RILM  .OHMM                  : Medium Induction Resistivity            
 MINV  .OHMM                  : Microlog Inverse Resistivity            
 MNOR  .OHMM                  : Microlog Normal Resistivity             
 NPHI  .PU                    : Compensated Neutron (Limestone)         
 PEF   .B/E                   : Photoelectric Effect                    
 RHOB  .G/CC                  : Formation Density Compensated           
 RSFL  .OHMM                  : Spherically Focused Resitivity          
 SFLU  .OHMM                  : Spherically Focused Resitivity (Unaveraged)
 SP    .MV                    : Spontaneous Potential                   
~A Log Data Section - Number of Curves =    14
# ...
 4832.0000
     9.499700    83.699997   118.454788     4.720900     5.037800     3.940000
     3.425900    29.964951     2.877511     2.454673     6.690000     6.690200
   -17.649265                                                                 
 4832.5000
     9.457100    83.199997   119.970421     4.792200     5.058600     3.760900
     3.793100    30.122051     2.732927     2.503350     6.793000     6.793400
   -17.759270                                                                 
 4833.0000
     8.755900    82.300003   116.267258     4.851500     5.220300     3.805600
     3.957900    29.330236     2.697346     2.548649     6.898000     6.898400
   -17.699068                                                                 
 4833.5000
     9.274600    83.900002   112.807785     4.965700     5.323600     3.391400
     3.590700    28.764326     2.686443     2.563944     6.921000     6.920700
   -17.638866                                                                 
 4834.0000
     9.355700    85.099998   112.581711     5.122700     5.334500     3.195500
     3.733100    29.892069     2.755942     2.546272     7.174000     7.174000
   -17.442501                                                                 
 4834.5000
     9.151100    81.900002   115.603989     5.355900     5.436400     3.615300
     4.002900    29.568125     2.856219     2.537447     6.836000     6.836100
   -17.041885                                                                 
 4835.0000
     9.026200    81.400002   115.319061     5.808500     5.860100     3.676900
     4.092800    25.886053     2.942461     2.547898     6.324000     6.324100
   -16.981684                                                                 
 4835.5000
     9.062300    78.400002   111.518036     6.209300     6.675200     3.509000
     3.710600    19.422871     2.986825     2.577658     6.677000     6.676700
   -17.261894                                                                 
 4836.0000
     9.218800    73.300003    98.308632     6.556700     7.880100     3.620900
     3.620700    14.440078     2.930604     2.621507     8.158000     8.158000
   -18.291012                                                                 
 4836.5000
     9.253500    73.099998    92.971321     6.997700     8.486100     8.099100
     5.089400    13.958828     2.919863     2.641916    11.737000    11.736900
   -23.302948                                                                 
 4837.0000
     8.757500    70.300003    89.033562     7.520000     8.723400    11.379400
     7.314800    15.904297     2.941371     2.623297    15.030000    15.029900
   -22.119387                                                                 
 4837.5000
     8.128800    69.500000    91.157951     8.250800     9.077700    28.894699
    16.269199    16.494091     3.017156     2.599445    16.049000    16.049200
   -17.055128                                                                 
 4838.0000
     8.081000    70.599998    85.160713     9.048100     9.993000    27.640800
    15.287600    15.473868     2.962767     2.605865    13.825000    13.825400
   -16.926844                                                                 
 4838.5000
     8.108500    70.800003    84.674965     9.456500    10.782100     9.638500
     8.333900    14.400683     3.009367     2.632523    14.281000    14.280700
   -17.785755                                                                 
 4839.0000
     8.164000    73.000000    90.713799     9.564000    10.647100    12.532500
     8.746100    15.259610     2.910212     2.634952    15.609000    15.609000
   -15.853288                                                                 
 4839.5000
     8.039500    72.000000    96.434395     9.344000    10.263000    18.113400
    13.406800    14.990274     2.869042     2.594841    15.861000    15.861100
   -15.895209                                                                 
 4840.0000
     8.073100    71.599998    99.425163     9.458300     9.885900    19.641600
    12.852300    17.997734     2.891294     2.570969    14.319000    14.319100
   -15.698842                                                                 
 4840.5000
     8.085400    73.300003    96.644478     9.844200     9.839100    12.056700
     8.888400    18.378672     2.985322     2.566397    12.396000    12.395800
   -15.536517                                                                 
 4841.0000
     8.073100    71.099998    94.962502    10.281000    10.447000     9.056300
     7.532200    17.948271     3.078208     2.565657    11.652000    11.652000
   -15.544398                                                                 
 4841.5000
     8.095800    68.800003    85.269089    10.509500    12.059700     6.296600
     6.115900    13.609336     3.388931     2.576535    12.832000    12.832000
   -15.552279                                                                 
 4842.0000
     8.199800    64.500000    75.835236    10.640300    13.181300     9.627300
     7.876900    11.423252     3.413170     2.600844    18.170000    18.170300
   -16.002695                                                                 
 4842.5000
     8.174200    66.500000    73.328781    10.440000    13.268300    15.510500
    11.578500    11.522031     3.341395     2.604943    25.021999    25.021799
   -16.453112                                                                 
 4843.0000
     8.076000    65.099998    77.024742    10.111700    12.532000    23.587999
    16.861200    12.522744     3.269175     2.591912    26.427000    26.427200
   -17.039692                                                                 
 4843.5000
     8.100600    72.000000    87.461884     9.699900    11.428900    27.791901
    16.793699    14.719980     3.187513     2.578387    22.046000    22.046101
   -17.251820                                                                 
 4844.0000
     8.087000    76.599998    97.326477     9.088900     9.940300    24.349300
    14.785600    17.633085     2.981203     2.564759    15.949000    15.949200
   -17.532030                                                                 
 4844.5000
     8.126400    78.699997   109.642685     8.414200     8.194100    14.833200
    12.185400    21.113651     2.864015     2.540352    11.634000    11.634200
   -17.778198                                                                 
 4845.0000
     8.113600    82.099998   116.127075     7.496400     7.342000    11.692800
     9.188200    23.767344     2.728370     2.518082     8.815000     8.815100
   -18.194574                                                                 
 4845.5000
     8.149100    84.500000   118.152596     6.776500     6.803600     5.804000
     5.464000    26.409317     2.595258     2.468605     7.209000     7.209100
   -18.610949                                                                 
 4846.0000
     8.351800    84.199997   117.073967     6.415400     6.252300     4.410200
     4.302600    29.036877     2.537078     2.418809     6.596000     6.595800
   -18.312458                                                                 
 4846.5000
     8.463400    83.199997   114.120369     6.152200     6.087300     3.951200
     3.987900    29.445431     2.499393     2.409428     6.889000     6.888700
   -18.116093                                                                 
 4847.0000
     8.667000    82.300003   113.464432     5.999400     6.158400     3.592900
     3.853000    29.452890     2.494477     2.396092     6.995000     6.995400
   -17.987808                                                                 
 4847.5000
     8.803600    80.199997   109.401321     6.114400     6.285100     3.329800
     3.778100    28.695351     2.582246     2.380533     6.916000     6.916000
   -17.927607                                                                 
 4848.0000
     9.035000    78.400002   104.839333     6.315600     6.558200     3.889600
     3.935400    26.574141     2.729211     2.419172     7.387000     7.387100
   -17.629116                                                                 
