~VERSION INFORMATION
 VERS.                 2.0:   CWLS Log Ascii Standard    
 WRAP.                 YES:   Multiple Lines per Depth   
~WELL INFORMATION
#MNEM.UNIT              DATA                DESCRIPTION OF MNEMONIC  
#---------              ----                -----------------------  
 STRT  .FT         4700.0000                :Top Depth  
 STOP  .FT         5740.0000                :Bottom Depth  
 STEP  .FT             .5000                :Increment  
 NULL  .          -99999.000                :Null Value  
 COMP  .  Threshold Development             :Company   
 FLD   .  WILDCAT                           :Field  
 STAT  .  TEXAS                             :State  
 SRVC  .  SCHLUMBERGER                      :Service Company  
 WELL  .  B YATES 18D                       :Well  
 UWI   .  422373813000                      :Unique Well ID  
~PARAMETER INFORMATION
#MNEM.UNIT        Value       Description                
#---------    -------------   -------------------------- 
 RUN   .                 1:   Run Number                 
 DATUM .FT       1040.0000:   Datum                      
 AMST  .DEG.F      80.0000:   Annual Mean Surface Temp.  
 BHT   .DEG.F     137.0000:   Bottom Hole Temperature    
 TD    .FT       5750.0000:   Loggers Total Depth        
 BITSIZ.IN          7.8750:   Bit Size                   
 MW    .LB/USGAL    9.3000:   Mud Weight                 
 RM    .OHM-M       3.7400:   Mud Resistivity            
 RMMT  .DEG.F      70.0000:   Mud Resistivity Meas. Temp.
 RMF   .OHM-M       3.1800:   Mud Filtrate Resistivity   
 RMFMT .DEG.F      70.0000:   Mud Filtrate Res.Meas.Temp.
 RMC   .OHM-M       5.6100:   Mud Cake Resistivity       
 RMCMT .DEG.F      70.0000:   Mud Cake Res. Meas. Temp.  
 RW    .OHM-M        .0539:   Formation Water Resistivity
 RWMT  .DEG.F      75.0000:   Formation Water Res.M.Temp.
 SALFM .PPM      150000.00:   Formation Water Salinity   
~CURVE INFORMATION
#MNEM.UNIT       API Code     Curve Description          
#---------    -------------   -------------------------- 
 DEPTH .FT                    : Depth                                   
 CALI  .INS                   : Caliper (from density)                  
 DLT   .US/FT                 : Borehole Compensated Sonic Travel Time  
 GR    .API                   : Gamma Ray                               
 RILD  .OHMM                  : Deep Induction Resistivity              
 RILM  .OHMM                  : Medium Induction Resistivity            
 MINV  .OHMM                  : Microlog Inverse Resistivity            
 MNOR  .OHMM                  : Microlog Normal Resistivity             
 NPHI  .PU                    : Compensated Neutron (Limestone)         
 PEF   .B/E                   : Photoelectric Effect                    
 RHOB  .G/CC                  : Formation Density Compensated           
 RSFL  .OHMM                  : Spherically Focused Resitivity          
 SFLU  .OHMM                  : Spherically Focused Resitivity (Unaveraged)
 SP    .MV                    : Spontaneous Potential                   
~A Log Data Section - Number of Curves =    14
# ...
 5442.5000
     8.662600    89.900002   108.526878     2.964200     3.160900     3.413500
     2.721300    27.538408     3.457642     2.590686     4.062000     4.061800
   -17.260159                                                                 
 5443.0000
     8.686500    89.900002   108.469872     2.953800     3.151000     3.318400
     2.728800    29.478926     3.399163     2.592754     4.109000     4.109300
   -17.569775                                                                 
 5443.5000
     8.693600    89.599998   109.115784     2.945100     3.149100     3.363200
     2.713800    30.535000     3.292581     2.590725     4.138000     4.138100
   -18.049595                                                                 
 5444.0000
     8.703300    89.900002   111.573311     2.941300     3.151200     3.435900
     2.713800    31.306633     3.261409     2.589263     4.159000     4.158900
   -18.257088                                                                 
 5444.5000
     8.696600    89.900002   116.115219     2.941400     3.153000     3.385500
     2.736300    30.768623     3.242174     2.578504     4.201000     4.201400
   -17.783756                                                                 
 5445.0000
     8.689300    90.400002   113.408752     2.946400     3.151200     3.268000
     2.743800    30.139688     3.248650     2.581112     4.189000     4.188600
   -17.923166                                                                 
 5445.5000
     8.711900    90.099998   109.070831     2.948700     3.154100     3.273600
     2.803700    29.111485     3.240013     2.589526     4.176000     4.176400
   -17.177505                                                                 
 5446.0000
     8.706900    90.199997   108.787025     2.948000     3.159800     3.296000
     2.826200    28.831289     3.323043     2.590762     4.160000     4.159500
   -16.602047                                                                 
 5446.5000
     8.615500    89.900002   113.093887     2.939000     3.162300     3.329600
     2.766300    29.703182     3.415911     2.598693     4.177000     4.176800
   -16.537210                                                                 
 5447.0000
     8.615500    90.199997   113.294533     2.926500     3.159100     3.368700
     2.773800    29.649424     3.409653     2.590932     4.202000     4.202300
   -16.574497                                                                 
 5447.5000
     8.618200    90.400002   110.551529     2.920500     3.151100     3.335200
     2.736300    32.125977     3.428189     2.580651     4.170000     4.169600
   -16.986237                                                                 
 5448.0000
     8.610500    90.699997   108.104683     2.920100     3.141500     3.296000
     2.728800    32.968380     3.379869     2.581893     4.083000     4.083500
   -17.363935                                                                 
 5448.5000
     8.631600    91.000000   107.669724     2.921200     3.141200     3.273600
     2.698800    32.374882     3.259235     2.579215     4.069000     4.069400
   -17.707590                                                                 
 5449.0000
     8.625700    90.699997   109.269302     2.926600     3.144100     3.206400
     2.698800    29.508945     3.224117     2.588572     4.089000     4.089000
   -18.187412                                                                 
 5449.5000
     8.640900    89.699997   111.941185     2.945500     3.150800     3.122500
     2.698800    27.908379     3.201236     2.598753     4.183000     4.183300
   -18.497028                                                                 
 5450.0000
     8.640400    89.099998   113.805710     2.972700     3.166300     3.178400
     2.788800    28.462265     3.155041     2.605891     4.362000     4.362100
   -18.398151                                                                 
 5450.5000
     8.630700    89.800003   114.387520     2.989000     3.198400     3.228800
     2.916100    30.505077     3.166716     2.605717     4.419000     4.419400
   -17.890778                                                                 
 5451.0000
     8.613900    90.000000   113.840424     3.024500     3.233900     3.284800
     2.938600    30.883152     3.124348     2.609470     4.396000     4.395700
   -17.213200                                                                 
 5451.5000
     8.635800    88.800003   109.496689     3.077400     3.279900     3.531100
     2.961100    26.335917     3.245890     2.612871     4.427000     4.427300
   -17.590897                                                                 
 5452.0000
     8.519200    88.800003   104.146667     3.152500     3.336800     3.693400
     3.036000    21.050957     3.396765     2.646181     4.425000     4.424800
   -17.934553                                                                 
 5452.5000
     8.513000    88.599998    87.340012     3.299200     3.385800     3.424700
     2.901100    16.954611     3.720571     2.684959     4.591000     4.591200
   -18.346292                                                                 
 5453.0000
     8.461900    85.400002    82.225075     3.649600     3.523800     4.163600
     3.103500    17.979706     3.772727     2.693539     4.238000     4.238100
   -18.860157                                                                 
 5453.5000
     8.566400    78.800003    81.055328     4.094400     4.053200    13.321500
     7.329600    18.337976     3.584284     2.639996     4.310000     4.310200
   -18.557032                                                                 
 5454.0000
     8.418500    74.800003    86.542503     4.400000     5.028600    17.290300
    10.109600    20.467655     3.359294     2.599357     5.608000     5.607600
   -18.458151                                                                 
 5454.5000
     8.380900    71.400002    95.361420     4.636500     5.697100    16.148399
    10.049600    24.804941     3.173260     2.536083     9.778000     9.777500
   -18.189066                                                                 
 5455.0000
     8.393100    74.199997   106.197159     4.752200     5.950900    11.339900
     7.599400    30.015196     3.045314     2.495338    14.719000    14.719300
   -17.647654                                                                 
 5455.5000
     8.375800    71.699997   113.449364     4.699200     5.956800    11.015200
     7.157300    33.565723     2.962988     2.481496    15.054000    15.054300
   -18.229599                                                                 
 5456.0000
     8.380400    81.199997   116.781609     4.409400     5.551400    14.564200
     7.427000    34.211582     2.952499     2.475719    12.572000    12.572000
   -18.913668                                                                 
 5456.5000
     8.382300    86.099998   123.963364     4.060600     4.394700    11.709400
     5.771000    33.820000     2.932531     2.455797     8.530000     8.529500
   -19.904106                                                                 
 5457.0000
     8.525000    91.199997   136.744553     3.682500     3.463300     2.165200
     2.226800    32.005585     2.883392     2.443511     5.574000     5.573500
   -20.928587                                                                 
 5457.5000
     8.777800   103.800003   141.474121     3.227800     3.133400     2.154000
     1.882100    30.436073     2.833482     2.448505     3.335000     3.334500
   -22.089233                                                                 
 5458.0000
     8.757500    94.500000   131.739975     2.949000     2.946400     2.187600
     1.964500    26.404181     2.770211     2.484232     3.021000     3.021300
   -22.364809                                                                 
 5458.5000
     8.702400   102.199997   110.621422     2.743100     2.779300     2.182000
     1.979500    21.036913     2.636368     2.550137     2.856000     2.856300
   -21.585106                                                                 
