~VERSION INFORMATION
 VERS.                 2.0:   CWLS Log Ascii Standard    
 WRAP.                 YES:   Multiple Lines per Depth   
~WELL INFORMATION
#MNEM.UNIT              DATA                DESCRIPTION OF MNEMONIC  
#---------              ----                -----------------------  
 STRT  .FT         4700.0000                :Top Depth  
 STOP  .FT         5740.0000                :Bottom Depth  
 STEP  .FT             .5000                :Increment  
 NULL  .          -99999.000                :Null Value  
 COMP  .  Threshold Development             :Company   
 FLD   .  WILDCAT                           :Field  
 STAT  .  TEXAS                             :State  
 SRVC  .  SCHLUMBERGER                      :Service Company  
 WELL  .  B YATES 18D                       :Well  
 UWI   .  422373813000                      :Unique Well ID  
~PARAMETER INFORMATION
#MNEM.UNIT        Value       Description                
#---------    -------------   -------------------------- 
 RUN   .                 1:   Run Number                 
 DATUM .FT       1040.0000:   Datum                      
 AMST  .DEG.F      80.0000:   Annual Mean Surface Temp.  
 BHT   .DEG.F     137.0000:   Bottom Hole Temperature    
 TD    .FT       5750.0000:   Loggers Total Depth        
 BITSIZ.IN          7.8750:   Bit Size                   
 MW    .LB/USGAL    9.3000:   Mud Weight                 
 RM    .OHM-M       3.7400:   Mud Resistivity            
 RMMT  .DEG.F      70.0000:   Mud Resistivity Meas. Temp.
 RMF   .OHM-M       3.1800:   Mud Filtrate Resistivity   
 RMFMT .DEG.F      70.0000:   Mud Filtrate Res.Meas.Temp.
 RMC   .OHM-M       5.6100:   Mud Cake Resistivity       
 RMCMT .DEG.F      70.0000:   Mud Cake Res. Meas. Temp.  
 RW    .OHM-M        .0539:   Formation Water Resistivity
 RWMT  .DEG.F      75.0000:   Formation Water Res.M.Temp.
 SALFM .PPM      150000.00:   Formation Water Salinity   
~CURVE INFORMATION
#MNEM.UNIT       API Code     Curve Description          
#---------    -------------   -------------------------- 
 DEPTH .FT                    : Depth                                   
 CALI  .INS                   : Caliper (from density)                  
 DLT   .US/FT                 : Borehole Compensated Sonic Travel Time  
 GR    .API                   : Gamma Ray                               
 RILD  .OHMM                  : Deep Induction Resistivity              
 RILM  .OHMM                  : Medium Induction Resistivity            
 MINV  .OHMM                  : Microlog Inverse Resistivity            
 MNOR  .OHMM                  : Microlog Normal Resistivity             
 NPHI  .PU                    : Compensated Neutron (Limestone)         
 PEF   .B/E                   : Photoelectric Effect                    
 RHOB  .G/CC                  : Formation Density Compensated           
 RSFL  .OHMM                  : Spherically Focused Resitivity          
 SFLU  .OHMM                  : Spherically Focused Resitivity (Unaveraged)
 SP    .MV                    : Spontaneous Potential                   
~A Log Data Section - Number of Curves =    14
# ...
 5178.5000
     8.481900    82.800003   101.890549     5.884400     6.434500     6.733200
     5.021900    27.045490     3.671514     2.625324     9.443000     9.442700
   -15.706635                                                                 
 5179.0000
     8.451800    81.900002   105.702072     5.770900     6.165200     5.479300
     4.707200    25.959660     3.655142     2.619893     9.557000     9.557400
   -15.797733                                                                 
 5179.5000
     8.463400    82.900002   114.752838     5.708000     6.064900     5.434500
     4.797100    26.010790     3.664603     2.609015     9.186000     9.186400
   -15.582461                                                                 
 5180.0000
     8.389300    83.900002   117.430603     5.636000     5.968900     5.624800
     4.924500    26.892149     3.797453     2.618533     8.656000     8.655800
   -15.877807                                                                 
 5180.5000
     8.382300    84.099998   112.519409     5.513600     5.844200     6.582000
     4.834500    28.102705     3.754726     2.633066     8.217000     8.216600
   -16.036987                                                                 
 5181.0000
     8.384900    83.099998   104.111702     5.320300     5.679200     6.873100
     4.714600    29.537920     3.855398     2.640689     7.463000     7.462700
   -15.549385                                                                 
 5181.5000
     8.397500    84.000000   102.981377     5.130000     5.446500     6.207000
     4.429900    28.059179     3.857828     2.651602     7.354000     7.354400
   -15.231989                                                                 
 5182.0000
     8.463400    86.500000   106.393761     4.975600     5.263300     4.320500
     4.235100    28.557247     3.761210     2.645746     6.832000     6.832300
   -15.391171                                                                 
 5182.5000
     8.476600    85.199997   107.197159     4.896100     5.099900     4.141400
     3.995300    28.803232     3.715836     2.616070     6.934000     6.933700
   -15.924805                                                                 
 5183.0000
     8.473600    85.800003   108.921982     4.863700     4.997900     3.469700
     3.748000    30.064610     3.638653     2.612704     6.615000     6.614600
   -16.288233                                                                 
 5183.5000
     8.486400    85.900002   112.572975     4.849900     4.980900     3.581600
     3.733000    29.901094     3.407984     2.602494     6.513000     6.513200
   -16.549536                                                                 
 5184.0000
     8.557900    86.099998   115.234215     4.964000     4.998900     3.436100
     3.823000    31.382490     3.361709     2.569172     6.334000     6.334100
   -16.572552                                                                 
 5184.5000
     8.564800    86.699997   114.760040     5.112000     5.159500     2.988300
     3.635600    30.669611     3.500242     2.557934     6.194000     6.194100
   -16.527485                                                                 
 5185.0000
     8.760300    84.400002   109.861755     5.099500     5.669500     7.253800
     5.688800    26.041407     3.625875     2.566627     7.219000     7.219100
   -17.061119                                                                 
 5185.5000
     8.656100    80.900002   107.249054     4.843800     5.919800    10.953800
     8.761000    21.989687     3.656659     2.577087     9.696000     9.695900
   -17.696877                                                                 
 5186.0000
     8.028600    79.800003   110.150711     4.611700     5.456000     9.644000
     8.513700    24.061094     3.642017     2.582181    14.261000    14.261200
   -17.890099                                                                 
 5186.5000
     8.046700    82.500000   126.021317     4.443500     4.746300     5.372900
     4.767100    30.239452     3.572602     2.552487    12.064000    12.063600
   -18.525856                                                                 
 5187.0000
     8.235300    90.500000   142.051300     4.402000     4.290700     3.749600
     3.463300    35.281246     3.395946     2.493011     7.249000     7.249300
   -18.412708                                                                 
 5187.5000
     8.320800    95.400002   150.941833     4.577800     4.097900     3.615200
     3.223500    38.393955     3.219386     2.453862     4.931000     4.931200
   -18.061272                                                                 
 5188.0000
     8.534700   100.800003   141.189758     4.885000     4.221200     3.592800
     3.343400    42.641399     3.088036     2.474284     4.518000     4.518200
   -18.628946                                                                 
 5188.5000
     8.717500    97.300003   113.906639     5.250100     4.723100     4.197400
     3.695600    39.829014     2.919204     2.526796     4.587000     4.587300
   -21.000805                                                                 
 5189.0000
     8.164300    87.800003    78.184265     5.662900     6.288500     8.446100
     9.270500    28.402149     2.724774     2.539734     5.693000     5.692900
   -22.759922                                                                 
 5189.5000
     7.878900    78.800003    46.893013     6.542100     8.240600    10.998600
    16.059299    13.082236     2.623907     2.533298    10.688000    10.688000
   -24.144585                                                                 
 5190.0000
     7.814500    68.800003    29.003548     8.238600    10.321500    10.131000
    17.752800     5.460156     2.512138     2.534534    42.022999    42.023201
   -26.176031                                                                 
 5190.5000
     7.789200    61.900002    20.739412    10.712300    14.578700     7.891900
    14.073600     3.190527     2.405784     2.506052   146.796005   146.795807
   -28.377686                                                                 
 5191.0000
     7.783500    62.400002    18.550537    15.534300    20.807899     7.337700
    13.099500     2.092031     2.343446     2.475399   250.104004   250.103806
   -30.783583                                                                 
 5191.5000
     7.743500    64.900002    19.010899    25.025499    33.159500     7.046600
    12.904700     1.887910     2.332928     2.447289   269.537994   269.538208
   -31.861877                                                                 
 5192.0000
     7.756900    63.000000    18.084425    38.063999    56.604698     7.332100
    12.649900     2.182500     2.254388     2.430450   322.429993   322.429901
   -32.974213                                                                 
 5192.5000
     7.743500    61.799999    18.211882    53.947399    84.217903     7.533600
    12.462600     2.408457     2.178238     2.427150   367.907990   367.908295
   -33.882301                                                                 
 5193.0000
     7.753700    61.400002    16.206430    56.666199   108.133904     7.242500
    11.938100     2.217578     2.169437     2.447702   351.735992   351.735596
   -33.428738                                                                 
 5193.5000
     7.779000    61.299999    18.591131    50.391102   103.323601     6.839500
    11.690800     2.013193     2.261731     2.484561   336.812012   336.811798
   -32.634766                                                                 
 5194.0000
     7.794200    58.900002    24.892534    43.385502    92.308899     6.828300
    12.297800     2.385742     2.371367     2.523198   333.218994   333.218903
   -31.091887                                                                 
 5194.5000
     7.829700    60.000000    41.423714    37.466900    72.958397     9.106600
    14.650600     4.391514     2.661969     2.558863   253.210007   253.210495
   -29.412844                                                                 
