~VERSION INFORMATION
 VERS.                 2.0:   CWLS Log Ascii Standard    
 WRAP.                 YES:   Multiple Lines per Depth   
~WELL INFORMATION
#MNEM.UNIT              DATA                DESCRIPTION OF MNEMONIC  
#---------              ----                -----------------------  
 STRT  .FT         4700.0000                :Top Depth  
 STOP  .FT         5740.0000                :Bottom Depth  
 STEP  .FT             .5000                :Increment  
 NULL  .          -99999.000                :Null Value  
 COMP  .  Threshold Development             :Company   
 FLD   .  WILDCAT                           :Field  
 STAT  .  TEXAS                             :State  
 SRVC  .  SCHLUMBERGER                      :Service Company  
 WELL  .  B YATES 18D                       :Well  
 UWI   .  422373813000                      :Unique Well ID  
~PARAMETER INFORMATION
#MNEM.UNIT        Value       Description                
#---------    -------------   -------------------------- 
 RUN   .                 1:   Run Number                 
 DATUM .FT       1040.0000:   Datum                      
 AMST  .DEG.F      80.0000:   Annual Mean Surface Temp.  
 BHT   .DEG.F     137.0000:   Bottom Hole Temperature    
 TD    .FT       5750.0000:   Loggers Total Depth        
 BITSIZ.IN          7.8750:   Bit Size                   
 MW    .LB/USGAL    9.3000:   Mud Weight                 
 RM    .OHM-M       3.7400:   Mud Resistivity            
 RMMT  .DEG.F      70.0000:   Mud Resistivity Meas. Temp.
 RMF   .OHM-M       3.1800:   Mud Filtrate Resistivity   
 RMFMT .DEG.F      70.0000:   Mud Filtrate Res.Meas.Temp.
 RMC   .OHM-M       5.6100:   Mud Cake Resistivity       
 RMCMT .DEG.F      70.0000:   Mud Cake Res. Meas. Temp.  
 RW    .OHM-M        .0539:   Formation Water Resistivity
 RWMT  .DEG.F      75.0000:   Formation Water Res.M.Temp.
 SALFM .PPM      150000.00:   Formation Water Salinity   
~CURVE INFORMATION
#MNEM.UNIT       API Code     Curve Description          
#---------    -------------   -------------------------- 
 DEPTH .FT                    : Depth                                   
 CALI  .INS                   : Caliper (from density)                  
 DLT   .US/FT                 : Borehole Compensated Sonic Travel Time  
 GR    .API                   : Gamma Ray                               
 RILD  .OHMM                  : Deep Induction Resistivity              
 RILM  .OHMM                  : Medium Induction Resistivity            
 MINV  .OHMM                  : Microlog Inverse Resistivity            
 MNOR  .OHMM                  : Microlog Normal Resistivity             
 NPHI  .PU                    : Compensated Neutron (Limestone)         
 PEF   .B/E                   : Photoelectric Effect                    
 RHOB  .G/CC                  : Formation Density Compensated           
 RSFL  .OHMM                  : Spherically Focused Resitivity          
 SFLU  .OHMM                  : Spherically Focused Resitivity (Unaveraged)
 SP    .MV                    : Spontaneous Potential                   
~A Log Data Section - Number of Curves =    14
# ...
 5244.5000
     9.302000    82.699997   113.046814     4.217800     4.225800     5.160200
     3.987800    27.434063     3.229147     2.478021     4.290000     4.290200
   -20.753170                                                                 
 5245.0000
     9.234000    81.199997   100.644897     4.255800     4.537700     7.533600
     5.523900    23.956718     3.317954     2.508878     4.573000     4.573400
   -19.346455                                                                 
 5245.5000
     8.929100    82.000000    94.572113     4.342800     4.856500     8.630800
     6.175800    21.140175     3.455260     2.530426     5.748000     5.747800
   -18.416319                                                                 
 5246.0000
     8.681400    79.500000    90.862480     4.508100     5.085300     8.625200
     6.243200    20.504328     3.587671     2.559661     9.445000     9.444800
   -17.520220                                                                 
 5246.5000
     8.657700    76.800003    92.212173     4.838500     5.326400     8.910600
     6.415600    19.903399     3.582984     2.579737    11.399000    11.398800
   -17.270908                                                                 
 5247.0000
     8.627100    78.500000    94.171257     5.210400     5.664600     8.720300
     6.385600    20.319239     3.487988     2.574008    10.323000    10.323400
   -17.532211                                                                 
 5247.5000
     8.537900    78.500000    92.905571     5.557600     5.930400     8.502000
     6.348100    19.919415     3.505028     2.571969     8.875000     8.875200
   -17.555227                                                                 
 5248.0000
     8.506900    79.500000    89.925842     5.823600     6.144600     8.496400
     6.490500    20.399736     3.418551     2.574717     8.103000     8.102800
   -17.544201                                                                 
 5248.5000
     8.488800    77.900002    87.204254     5.973900     6.310800     9.128900
     6.805200    19.066416     3.410121     2.574491     7.835000     7.835200
   -17.397013                                                                 
 5249.0000
     8.504000    79.300003    87.946457     6.039500     6.435500     9.492800
     6.850200    18.915312     3.406039     2.579008     7.967000     7.966700
   -17.283863                                                                 
 5249.5000
     8.502800    78.800003    88.040825     6.037200     6.499300     9.526400
     7.000000    18.268280     3.362125     2.581651     8.285000     8.285400
   -17.238796                                                                 
 5250.0000
     8.509100    77.699997    90.140686     6.043900     6.555800     9.543200
     7.194800    18.641376     3.261397     2.587887     8.409000     8.409000
   -17.329897                                                                 
 5250.5000
     8.494300    78.500000    89.845230     6.087600     6.625100     9.240900
     7.172400    19.662510     3.245989     2.604460     8.483000     8.483400
   -16.808252                                                                 
 5251.0000
     8.514100    78.500000    90.225159     6.185600     6.706700     9.414400
     6.895100    19.954180     3.234858     2.607108     8.497000     8.497300
   -16.252569                                                                 
 5251.5000
     8.504500    78.199997    89.180046     6.355300     6.807700     9.274500
     6.820200    19.774784     3.284413     2.602018     8.524000     8.524100
   -16.411747                                                                 
 5252.0000
     8.523900    77.599998    86.041992     6.515000     6.928100     9.599200
     7.239800    19.207785     3.241458     2.607924     8.453000     8.453300
   -15.685859                                                                 
 5252.5000
     8.494300    76.699997    87.869949     6.629400     7.126100    10.164500
     7.741900    19.115118     3.317808     2.618751     8.647000     8.647300
   -15.947162                                                                 
 5253.0000
     8.503200    76.000000    87.308998     6.705800     7.279900    11.480000
     8.663500    18.857071     3.359831     2.617507     9.098000     9.097800
   -15.834014                                                                 
 5253.5000
     8.504000    74.699997    86.548988     6.750400     7.407500    12.246900
     9.337900    17.627501     3.387297     2.616051     9.718000     9.717600
   -15.857028                                                                 
 5254.0000
     8.512000    75.099998    80.651779     6.782000     7.505500    11.396000
     8.888300    17.421759     3.345879     2.616653    10.188000    10.188300
   -16.220457                                                                 
 5254.5000
     8.524300    75.300003    83.349922     6.797300     7.508100     9.895800
     7.689400    18.363115     3.648578     2.618342    10.463000    10.462600
   -16.481762                                                                 
 5255.0000
     8.545100    76.000000    85.367798     6.798600     7.384600     9.128900
     6.790200    19.649004     3.706703     2.619784    10.070000    10.069700
   -16.470736                                                                 
 5255.5000
     8.548700    77.000000    87.936501     6.763600     7.229900     9.308100
     6.737800    19.216602     3.693047     2.616013     9.312000     9.312300
   -16.323547                                                                 
 5256.0000
     8.545300    76.699997    83.375595     6.718800     7.150500     9.448000
     6.737800    19.133495     3.691264     2.602635     8.814000     8.814300
   -16.482727                                                                 
 5256.5000
     8.522300    76.699997    86.798859     6.650900     7.062900     9.795100
     7.015000    18.619902     3.593578     2.596843     8.486000     8.485600
   -16.403620                                                                 
 5257.0000
     8.509100    77.000000    83.974762     6.558800     6.996500     9.867900
     7.134900    20.028202     3.377259     2.592414     8.436000     8.436400
   -16.358553                                                                 
 5257.5000
     8.516500    77.000000    85.984840     6.447500     6.943300     9.481600
     6.992500    19.952812     3.337232     2.593087     8.529000     8.529100
   -15.836910                                                                 
 5258.0000
     8.504000    77.199997    79.840302     6.407200     6.888400     9.459200
     6.895100    20.190001     3.415800     2.600400     8.671000     8.671100
   -15.349307                                                                 
 5258.5000
     8.489900    77.400002    83.995087     6.365900     6.846900     9.358400
     6.707800    19.576660     3.477332     2.611579     8.747000     8.746500
   -15.304241                                                                 
 5259.0000
     8.488800    77.400002    87.482796     6.351900     6.821000     9.380800
     6.692800    19.775282     3.643986     2.606226     8.667000     8.667500
   -14.850681                                                                 
 5259.5000
     8.483200    77.099998    84.948456     6.357100     6.821300     9.403200
     6.677800    19.509296     3.657758     2.599139     8.618000     8.618100
   -14.770168                                                                 
 5260.0000
     8.458400    76.800003    79.221634     6.351800     6.832500     9.638300
     7.000000    19.939335     3.657241     2.599760     8.562000     8.562300
   -14.867347                                                                 
 5260.5000
     8.438700    76.699997    83.196053     6.321700     6.840200     9.565600
     7.089900    19.148712     3.715405     2.616214     8.666000     8.665800
   -14.998565                                                                 
