~VERSION INFORMATION
 VERS.                 2.0:   CWLS Log Ascii Standard    
 WRAP.                 YES:   Multiple Lines per Depth   
~WELL INFORMATION
#MNEM.UNIT              DATA                DESCRIPTION OF MNEMONIC  
#---------              ----                -----------------------  
 STRT  .FT         4700.0000                :Top Depth  
 STOP  .FT         5740.0000                :Bottom Depth  
 STEP  .FT             .5000                :Increment  
 NULL  .          -99999.000                :Null Value  
 COMP  .  Threshold Development             :Company   
 FLD   .  WILDCAT                           :Field  
 STAT  .  TEXAS                             :State  
 SRVC  .  SCHLUMBERGER                      :Service Company  
 WELL  .  B YATES 18D                       :Well  
 UWI   .  422373813000                      :Unique Well ID  
~PARAMETER INFORMATION
#MNEM.UNIT        Value       Description                
#---------    -------------   -------------------------- 
 RUN   .                 1:   Run Number                 
 DATUM .FT       1040.0000:   Datum                      
 AMST  .DEG.F      80.0000:   Annual Mean Surface Temp.  
 BHT   .DEG.F     137.0000:   Bottom Hole Temperature    
 TD    .FT       5750.0000:   Loggers Total Depth        
 BITSIZ.IN          7.8750:   Bit Size                   
 MW    .LB/USGAL    9.3000:   Mud Weight                 
 RM    .OHM-M       3.7400:   Mud Resistivity            
 RMMT  .DEG.F      70.0000:   Mud Resistivity Meas. Temp.
 RMF   .OHM-M       3.1800:   Mud Filtrate Resistivity   
 RMFMT .DEG.F      70.0000:   Mud Filtrate Res.Meas.Temp.
 RMC   .OHM-M       5.6100:   Mud Cake Resistivity       
 RMCMT .DEG.F      70.0000:   Mud Cake Res. Meas. Temp.  
 RW    .OHM-M        .0539:   Formation Water Resistivity
 RWMT  .DEG.F      75.0000:   Formation Water Res.M.Temp.
 SALFM .PPM      150000.00:   Formation Water Salinity   
~CURVE INFORMATION
#MNEM.UNIT       API Code     Curve Description          
#---------    -------------   -------------------------- 
 DEPTH .FT                    : Depth                                   
 CALI  .INS                   : Caliper (from density)                  
 DLT   .US/FT                 : Borehole Compensated Sonic Travel Time  
 GR    .API                   : Gamma Ray                               
 RILD  .OHMM                  : Deep Induction Resistivity              
 RILM  .OHMM                  : Medium Induction Resistivity            
 MINV  .OHMM                  : Microlog Inverse Resistivity            
 MNOR  .OHMM                  : Microlog Normal Resistivity             
 NPHI  .PU                    : Compensated Neutron (Limestone)         
 PEF   .B/E                   : Photoelectric Effect                    
 RHOB  .G/CC                  : Formation Density Compensated           
 RSFL  .OHMM                  : Spherically Focused Resitivity          
 SFLU  .OHMM                  : Spherically Focused Resitivity (Unaveraged)
 SP    .MV                    : Spontaneous Potential                   
~A Log Data Section - Number of Curves =    14
# ...
 4898.0000
     8.246400    76.000000   104.563896     9.024800     9.625100    14.743600
    14.216100    19.184238     3.008191     2.572413    11.628000    11.628500
   -16.306623                                                                 
 4898.5000
     8.223900    77.199997   109.558929     8.703700     8.978400     8.871500
     9.697700    20.514608     2.954308     2.513928     9.749000     9.749000
   -16.927246                                                                 
 4899.0000
     8.290800    77.500000   117.493256     8.543000     8.525000     6.503700
     7.524700    22.836407     2.952525     2.474278     8.875000     8.875200
   -17.241497                                                                 
 4899.5000
     8.280900    76.199997   123.079414     8.393000     8.498700     6.733200
     6.670400    24.710167     2.901957     2.455965     8.335000     8.335100
   -17.896160                                                                 
 4900.0000
     8.374000    75.699997   120.327942     8.251400     8.728600     5.193800
     5.838700    24.039463     2.935899     2.459069     8.164000     8.164000
   -18.210411                                                                 
 4900.5000
     8.387400    73.699997   114.105179     8.138800     8.867800     5.574500
     5.119300    22.286465     3.111215     2.498197     8.765000     8.764800
   -18.003790                                                                 
 4901.0000
     8.574000    74.300003   106.989464     8.058200     8.816500     6.587700
     6.078500    20.478788     3.214005     2.564644     9.934000     9.934100
   -17.721138                                                                 
 4901.5000
     8.448200    71.699997   103.073509     8.016400     8.870900     8.468500
     7.135000    18.810507     3.182751     2.605246    11.650000    11.649900
   -17.574650                                                                 
 4902.0000
     8.259700    74.099998    98.274193     8.107000     8.750600     7.656800
     6.595500    17.535469     3.228096     2.600612    11.674000    11.674000
   -17.768572                                                                 
 4902.5000
     8.230200    73.400002    97.564034     8.184900     8.682000     6.929100
     5.831200    18.471827     3.269612     2.600788    11.917000    11.916700
   -17.996538                                                                 
 4903.0000
     8.246400    74.699997    96.938057     8.256600     8.731800     8.810000
     6.797800    19.516251     3.287257     2.611465    10.473000    10.473100
   -18.020254                                                                 
 4903.5000
     8.229000    76.099998    97.270157     8.247200     8.907000     9.033900
     6.790300    20.377344     3.265336     2.636184    10.666000    10.666400
   -17.737602                                                                 
 4904.0000
     8.419700    73.400002    97.211403     8.263500     8.749200     6.475700
     6.056000    21.225996     3.219060     2.666499    10.539000    10.538900
   -17.216660                                                                 
 4904.5000
     8.487700    74.199997   100.645721     8.245200     8.512000     9.548900
     7.232400    21.602558     3.147405     2.684932    10.437000    10.436800
   -16.865925                                                                 
 4905.0000
     8.624200    72.500000   102.807434     8.216000     8.634900     9.683200
     6.992600    21.318848     3.113294     2.668708     9.857000     9.856900
   -16.515190                                                                 
 4905.5000
     8.624000    73.800003   102.917267     8.154400     8.893700     7.057900
     6.071000    19.586699     3.116768     2.645445     9.785000     9.784500
   -16.062330                                                                 
 4906.0000
     8.724800    76.199997   101.310280     8.099500     8.839800     6.968300
     5.666300    18.479395     3.208504     2.633382    10.330000    10.329600
   -16.052006                                                                 
 4906.5000
     8.691600    73.699997   102.531197     7.984400     8.661900    10.287800
     7.157500    18.262783     3.234902     2.641372    11.118000    11.118400
   -16.654425                                                                 
 4907.0000
     8.526700    76.099998   104.553970     7.891500     8.419500    11.530500
     7.966700    18.645517     3.223856     2.648338    10.700000    10.700200
   -17.120678                                                                 
 4907.5000
     8.504000    74.300003   105.042908     7.851800     8.162000    10.494900
     7.502200    19.327578     3.213703     2.642295     9.981000     9.981300
   -17.484808                                                                 
 4908.0000
     8.493900    75.900002   107.519714     7.781200     8.047300     9.185000
     6.722900    19.656717     3.169947     2.634595     9.108000     9.107700
   -17.780855                                                                 
 4908.5000
     8.494300    76.500000   108.010376     7.597900     7.982600     8.289400
     6.348200    19.949686     3.086872     2.631255     8.917000     8.917200
   -17.838614                                                                 
 4909.0000
     8.494300    77.199997   108.701241     7.401600     7.778600     7.399400
     5.868600    20.748417     3.099486     2.634485     9.180000     9.180100
   -17.896372                                                                 
 4909.5000
     8.516100    78.599998   109.493561     7.128500     7.589400     8.087900
     6.190900    21.963272     3.124179     2.644192     9.518000     9.517600
   -18.022213                                                                 
 4910.0000
     8.514100    79.300003   113.654984     7.001100     7.324300     7.746400
     6.423100    23.737930     3.105423     2.645705     9.303000     9.302800
   -17.841684                                                                 
 4910.5000
     8.538300    79.400002   121.752480     6.960900     7.195000     8.373400
     6.438100    24.451385     3.137851     2.641130     8.581000     8.580700
   -18.035606                                                                 
 4911.0000
     8.541400    78.500000   127.675026     6.927100     7.209100     7.326600
     5.891100    25.010479     3.151748     2.632595     8.173000     8.173200
   -18.025284                                                                 
 4911.5000
     8.569400    78.500000   127.696091     6.862400     7.230000     6.207000
     5.149300    24.393984     3.129138     2.618660     8.344000     8.343900
   -18.014959                                                                 
 4912.0000
     8.507500    78.500000   123.401009     6.751000     7.225400     7.091500
     5.449000    23.600439     3.066679     2.607592     8.821000     8.821200
   -17.289772                                                                 
 4912.5000
     8.470000    78.800003   116.802872     6.606200     7.132100     7.421700
     5.823700    22.843124     3.003959     2.609697     9.695000     9.695300
   -17.483694                                                                 
 4913.0000
     8.454000    79.099998   116.617691     6.508100     6.868000     7.953500
     5.913600    22.018555     3.018995     2.619061     9.443000     9.443300
   -17.439331                                                                 
 4913.5000
     8.433000    80.400002   119.075027     6.448800     6.613000     8.418100
     6.325700    23.186689     3.067736     2.627436     8.823000     8.823300
   -17.633253                                                                 
 4914.0000
     8.445100    80.500000   119.029999     6.339600     6.560200     7.690400
     5.808700    25.183594     3.080398     2.636018     8.069000     8.068900
   -18.303755                                                                 
