~VERSION INFORMATION
 VERS.                 2.0:   CWLS Log Ascii Standard    
 WRAP.                 YES:   Multiple Lines per Depth   
~WELL INFORMATION
#MNEM.UNIT              DATA                DESCRIPTION OF MNEMONIC  
#---------              ----                -----------------------  
 STRT  .FT         4578.0000                :Top Depth  
 STOP  .FT         5960.0000                :Bottom Depth  
 STEP  .FT             .5000                :Increment  
 NULL  .          -99999.000                :Null Value  
 COMP  .  CITIES SERVICE OIL CO.            :Company   
 FLD   .  CAP YATES CONG.                   :Field  
 STAT  .  TEXAS                             :State  
 SRVC  .  SCHLUMBERGER                      :Service Company  
 WELL  .  ASHE C1                           :Well  
 UWI   .  424970137400                      :Unique Well ID  
~PARAMETER INFORMATION
#MNEM.UNIT        Value       Description                
#---------    -------------   -------------------------- 
 RUN   .                 1:   Run Number                 
 DATUM .FT        943.0000:   Datum                      
 AMST  .DEG.F      80.0000:   Annual Mean Surface Temp.  
 BHT   .DEG.F     128.0000:   Bottom Hole Temperature    
 TD    .FT       5947.0000:   Loggers Total Depth        
 BITSIZ.IN          8.7500:   Bit Size                   
 MW    .LB/USGAL    9.8000:   Mud Weight                 
 RM    .OHM-M       2.6000:   Mud Resistivity            
 RMMT  .DEG.F      85.0000:   Mud Resistivity Meas. Temp.
 RMF   .OHM-M       1.4000:   Mud Filtrate Resistivity   
 RMFMT .DEG.F     128.0000:   Mud Filtrate Res.Meas.Temp.
 RMC   .OHM-M       1.7000:   Mud Cake Resistivity       
 RMCMT .DEG.F     128.0000:   Mud Cake Res. Meas. Temp.  
 SALFM .PPM      150000.00:   Formation Water Salinity   
~CURVE INFORMATION
#MNEM.UNIT       API Code     Curve Description          
#---------    -------------   -------------------------- 
 DEPTH .FT                    : Depth                                   
 RILD  .OHMM                  : Deep Induction Resistivity              
 SP    .MV                    : Spontaneous Potential                   
~A Log Data Section - Number of Curves =     3
# ...
 4845.0000
    18.802000   -22.269375                                                    
 4845.5000
    15.045000   -22.608551                                                    
 4846.0000
    12.401000   -22.610191                                                    
 4846.5000
    10.360000   -22.844501                                                    
 4847.0000
     9.418000   -23.036209                                                    
 4847.5000
     9.244000   -23.388494                                                    
 4848.0000
     7.938000   -23.391773                                                    
 4848.5000
     7.024000   -23.393412                                                    
 4849.0000
     7.085000   -23.373751                                                    
 4849.5000
     6.911000   -23.013269                                                    
 4850.0000
     6.738000   -22.236603                                                    
 4850.5000
     6.642000   -21.864656                                                    
 4851.0000
     6.525000   -22.256266                                                    
 4851.5000
     6.448000   -23.414713                                                    
 4852.0000
     6.408000   -24.179909                                                    
 4852.5000
     6.407000   -24.183187                                                    
 4853.0000
     6.407000   -24.186462                                                    
 4853.5000
     6.407000   -24.006226                                                    
 4854.0000
     6.511000   -23.806324                                                    
 4854.5000
     6.406000   -23.807962                                                    
 4855.0000
     6.406000   -23.811237                                                    
 4855.5000
     6.406000   -23.812878                                                    
 4856.0000
     6.406000   -24.173355                                                    
 4856.5000
     6.470000   -24.043911                                                    
 4857.0000
     6.522000   -23.821070                                                    
 4857.5000
     6.521000   -23.290184                                                    
 4858.0000
     6.518000   -23.057510                                                    
 4858.5000
     6.404000   -22.675732                                                    
 4859.0000
     6.404000   -22.354578                                                    
 4859.5000
     6.404000   -22.426674                                                    
 4860.0000
     6.404000   -23.003437                                                    
 4860.5000
     6.287000   -23.454039                                                    
 4861.0000
     6.173000   -23.773554                                                    
 4861.5000
     5.949000   -23.845650                                                    
 4862.0000
     6.150000   -23.847288                                                    
 4862.5000
     6.337000   -23.848925                                                    
 4863.0000
     6.294000   -24.153694                                                    
 4863.5000
     6.285000   -24.622314                                                    
 4864.0000
     6.285000   -24.478125                                                    
 4864.5000
     6.401000   -24.145500                                                    
 4865.0000
     6.504000   -23.578568                                                    
 4865.5000
     6.560000   -23.096836                                                    
 4866.0000
     6.633000   -23.098475                                                    
 4866.5000
     6.713000   -23.178762                                                    
 4867.0000
     6.866000   -23.488447                                                    
 4867.5000
     6.865000   -23.419630                                                    
 4868.0000
     6.675000   -22.597082                                                    
 4868.5000
     6.738000   -21.959690                                                    
 4869.0000
     7.072000   -21.961329                                                    
 4869.5000
     7.128000   -21.967884                                                    
 4870.0000
     7.125000   -21.976076                                                    
 4870.5000
     7.184000   -21.982630                                                    
 4871.0000
     7.182000   -21.989183                                                    
 4871.5000
     7.212000   -22.452890                                                    
 4872.0000
     7.212000   -23.383579                                                    
 4872.5000
     7.187000   -23.547434                                                    
 4873.0000
     7.095000   -23.553988                                                    
 4873.5000
     7.095000   -23.945599                                                    
 4874.0000
     7.094000   -23.952152                                                    
 4874.5000
     7.074000   -24.343763                                                    
 4875.0000
     6.978000   -24.140583                                                    
 4875.5000
     6.977000   -23.776829                                                    
 4876.0000
     6.977000   -23.398327                                                    
 4876.5000
     6.977000   -23.028019                                                    
 4877.0000
     7.049000   -22.749466                                                    
 4877.5000
     7.117000   -22.470915                                                    
 4878.0000
     7.392000   -22.474192                                                    
 4878.5000
     7.448000   -22.480745                                                    
 4879.0000
     7.555000   -22.487301                                                    
 4879.5000
     7.676000   -22.493855                                                    
 4880.0000
     7.724000   -22.500408                                                    
 4880.5000
     7.669000   -22.157953                                                    
 4881.0000
     7.669000   -21.979353                                                    
 4881.5000
     7.785000   -21.754873                                                    
 4882.0000
     7.957000   -22.144844                                                    
 4882.5000
     8.015000   -22.153038                                                    
 4883.0000
     8.069000   -22.159592                                                    
 4883.5000
     8.241000   -21.520563                                                    
 4884.0000
     8.362000   -21.279697                                                    
 4884.5000
     8.469000   -20.717678                                                    
 4885.0000
     8.640000   -20.155659                                                    
 4885.5000
     8.709000   -19.890217                                                    
 4886.0000
     8.868000   -19.896770                                                    
 4886.5000
     8.840000   -19.904963                                                    
 4887.0000
     8.644000   -19.913157                                                    
 4887.5000
     8.382000   -19.636242                                                    
 4888.0000
     8.199000   -19.541208                                                    
 4888.5000
     7.924000   -20.103226                                                    
 4889.0000
     7.732000   -20.966736                                                    
