~VERSION INFORMATION
 VERS.                 2.0:   CWLS Log Ascii Standard    
 WRAP.                 YES:   Multiple Lines per Depth   
~WELL INFORMATION
#MNEM.UNIT              DATA                DESCRIPTION OF MNEMONIC  
#---------              ----                -----------------------  
 STRT  .FT         4578.0000                :Top Depth  
 STOP  .FT         5960.0000                :Bottom Depth  
 STEP  .FT             .5000                :Increment  
 NULL  .          -99999.000                :Null Value  
 COMP  .  CITIES SERVICE OIL CO.            :Company   
 FLD   .  CAP YATES CONG.                   :Field  
 STAT  .  TEXAS                             :State  
 SRVC  .  SCHLUMBERGER                      :Service Company  
 WELL  .  ASHE C1                           :Well  
 UWI   .  424970137400                      :Unique Well ID  
~PARAMETER INFORMATION
#MNEM.UNIT        Value       Description                
#---------    -------------   -------------------------- 
 RUN   .                 1:   Run Number                 
 DATUM .FT        943.0000:   Datum                      
 AMST  .DEG.F      80.0000:   Annual Mean Surface Temp.  
 BHT   .DEG.F     128.0000:   Bottom Hole Temperature    
 TD    .FT       5947.0000:   Loggers Total Depth        
 BITSIZ.IN          8.7500:   Bit Size                   
 MW    .LB/USGAL    9.8000:   Mud Weight                 
 RM    .OHM-M       2.6000:   Mud Resistivity            
 RMMT  .DEG.F      85.0000:   Mud Resistivity Meas. Temp.
 RMF   .OHM-M       1.4000:   Mud Filtrate Resistivity   
 RMFMT .DEG.F     128.0000:   Mud Filtrate Res.Meas.Temp.
 RMC   .OHM-M       1.7000:   Mud Cake Resistivity       
 RMCMT .DEG.F     128.0000:   Mud Cake Res. Meas. Temp.  
 SALFM .PPM      150000.00:   Formation Water Salinity   
~CURVE INFORMATION
#MNEM.UNIT       API Code     Curve Description          
#---------    -------------   -------------------------- 
 DEPTH .FT                    : Depth                                   
 RILD  .OHMM                  : Deep Induction Resistivity              
 SP    .MV                    : Spontaneous Potential                   
~A Log Data Section - Number of Curves =     3
# ...
 5735.0000
    14.524000   -26.049482                                                    
 5735.5000
    19.245001   -26.960510                                                    
 5736.0000
    25.867001   -28.120596                                                    
 5736.5000
    33.337002   -29.283957                                                    
 5737.0000
    40.806999   -30.185154                                                    
 5737.5000
    48.277000   -30.760281                                                    
 5738.0000
    55.400002   -31.335407                                                    
 5738.5000
    55.467999   -31.471407                                                    
 5739.0000
    55.466999   -31.242012                                                    
 5739.5000
    55.466999   -30.625919                                                    
 5740.0000
    55.305000   -29.162704                                                    
 5740.5000
    45.401001   -27.332457                                                    
 5741.0000
    33.807999   -25.805340                                                    
 5741.5000
    19.847000   -25.338358                                                    
 5742.0000
    13.125000   -25.341633                                                    
 5742.5000
    13.056000   -25.343273                                                    
 5743.0000
    13.124000   -25.461246                                                    
 5743.5000
    13.190000   -26.038013                                                    
 5744.0000
    13.528000   -27.117811                                                    
 5744.5000
    11.602000   -28.281172                                                    
 5745.0000
     9.727000   -28.928394                                                    
 5745.5000
     8.128000   -29.503521                                                    
 5746.0000
     7.094000   -29.580534                                                    
 5746.5000
     6.564000   -29.878748                                                    
 5747.0000
     6.242000   -29.872194                                                    
 5747.5000
     6.154000   -29.041454                                                    
 5748.0000
     6.153000   -28.369654                                                    
 5748.5000
     6.153000   -27.568409                                                    
 5749.0000
     6.292000   -26.486973                                                    
 5749.5000
     6.544000   -25.716858                                                    
 5750.0000
     6.684000   -24.989349                                                    
 5750.5000
     6.884000   -24.990988                                                    
 5751.0000
     6.963000   -25.369488                                                    
 5751.5000
     6.888000   -26.318203                                                    
 5752.0000
     6.714000   -26.916269                                                    
 5752.5000
     6.466000   -27.483204                                                    
 5753.0000
     6.116000   -27.689659                                                    
 5753.5000
     5.691000   -27.524166                                                    
 5754.0000
     5.450000   -27.307880                                                    
 5754.5000
     5.376000   -27.309517                                                    
 5755.0000
     5.318000   -27.311157                                                    
 5755.5000
     5.216000   -27.183350                                                    
 5756.0000
     5.216000   -26.932653                                                    
 5756.5000
     5.215000   -26.686874                                                    
 5757.0000
     5.215000   -26.550875                                                    
 5757.5000
     5.214000   -26.169096                                                    
 5758.0000
     5.322000   -26.449286                                                    
 5758.5000
     5.213000   -26.639359                                                    
 5759.0000
     5.194000   -27.214485                                                    
 5759.5000
     4.927000   -27.329182                                                    
 5760.0000
     4.868000   -27.330820                                                    
 5760.5000
     4.978000   -27.332457                                                    
 5761.0000
     4.978000   -27.335735                                                    
 5761.5000
     4.977000   -27.296410                                                    
 5762.0000
     4.977000   -26.955593                                                    
 5762.5000
     5.033000   -26.572178                                                    
 5763.0000
     5.092000   -26.473862                                                    
 5763.5000
     5.207000   -26.192036                                                    
 5764.0000
     5.317000   -26.013435                                                    
 5764.5000
     5.322000   -25.813532                                                    
 5765.0000
     5.322000   -25.815172                                                    
 5765.5000
     5.437000   -25.816811                                                    
 5766.0000
     5.541000   -25.818447                                                    
 5766.5000
     5.552000   -25.821726                                                    
 5767.0000
     5.552000   -25.823364                                                    
 5767.5000
     5.594000   -25.825001                                                    
 5768.0000
     5.667000   -25.441584                                                    
 5768.5000
     5.898000   -25.443222                                                    
 5769.0000
     5.898000   -25.444862                                                    
 5769.5000
     5.824000   -25.448137                                                    
 5770.0000
     5.944000   -25.534981                                                    
 5770.5000
     5.664000   -25.836472                                                    
 5771.0000
     5.663000   -25.838112                                                    
 5771.5000
     5.696000   -25.585775                                                    
 5772.0000
     6.129000   -25.023758                                                    
 5772.5000
     6.270000   -24.463377                                                    
 5773.0000
     6.525000   -23.902998                                                    
 5773.5000
     6.730000   -23.340979                                                    
 5774.0000
     6.980000   -22.405373                                                    
 5774.5000
     7.304000   -22.046534                                                    
 5775.0000
     7.624000   -20.933964                                                    
 5775.5000
     8.149000   -20.765196                                                    
 5776.0000
     8.696000   -20.389971                                                    
 5776.5000
     9.384000   -20.098310                                                    
 5777.0000
     9.864000   -20.099949                                                    
 5777.5000
    10.594000   -19.718170                                                    
 5778.0000
    11.324000   -19.721447                                                    
 5778.5000
    12.054000   -19.723085                                                    
 5779.0000
    12.784000   -19.452726                                                    
