~VERSION INFORMATION
 VERS.                 2.0:   CWLS Log Ascii Standard    
 WRAP.                 YES:   Multiple Lines per Depth   
~WELL INFORMATION
#MNEM.UNIT              DATA                DESCRIPTION OF MNEMONIC  
#---------              ----                -----------------------  
 STRT  .FT         4578.0000                :Top Depth  
 STOP  .FT         5960.0000                :Bottom Depth  
 STEP  .FT             .5000                :Increment  
 NULL  .          -99999.000                :Null Value  
 COMP  .  CITIES SERVICE OIL CO.            :Company   
 FLD   .  CAP YATES CONG.                   :Field  
 STAT  .  TEXAS                             :State  
 SRVC  .  SCHLUMBERGER                      :Service Company  
 WELL  .  ASHE C1                           :Well  
 UWI   .  424970137400                      :Unique Well ID  
~PARAMETER INFORMATION
#MNEM.UNIT        Value       Description                
#---------    -------------   -------------------------- 
 RUN   .                 1:   Run Number                 
 DATUM .FT        943.0000:   Datum                      
 AMST  .DEG.F      80.0000:   Annual Mean Surface Temp.  
 BHT   .DEG.F     128.0000:   Bottom Hole Temperature    
 TD    .FT       5947.0000:   Loggers Total Depth        
 BITSIZ.IN          8.7500:   Bit Size                   
 MW    .LB/USGAL    9.8000:   Mud Weight                 
 RM    .OHM-M       2.6000:   Mud Resistivity            
 RMMT  .DEG.F      85.0000:   Mud Resistivity Meas. Temp.
 RMF   .OHM-M       1.4000:   Mud Filtrate Resistivity   
 RMFMT .DEG.F     128.0000:   Mud Filtrate Res.Meas.Temp.
 RMC   .OHM-M       1.7000:   Mud Cake Resistivity       
 RMCMT .DEG.F     128.0000:   Mud Cake Res. Meas. Temp.  
 SALFM .PPM      150000.00:   Formation Water Salinity   
~CURVE INFORMATION
#MNEM.UNIT       API Code     Curve Description          
#---------    -------------   -------------------------- 
 DEPTH .FT                    : Depth                                   
 RILD  .OHMM                  : Deep Induction Resistivity              
 SP    .MV                    : Spontaneous Potential                   
~A Log Data Section - Number of Curves =     3
# ...
 4934.0000
     7.129000   -24.417498                                                    
 4934.5000
     6.841000   -23.981646                                                    
 4935.0000
     6.780000   -23.662130                                                    
 4935.5000
     6.663000   -23.668684                                                    
 4936.0000
     6.559000   -23.676880                                                    
 4936.5000
     6.662000   -23.685070                                                    
 4937.0000
     6.661000   -23.691624                                                    
 4937.5000
     6.660000   -24.481400                                                    
 4938.0000
     6.660000   -24.856627                                                    
 4938.5000
     6.659000   -24.479763                                                    
 4939.0000
     6.577000   -23.922659                                                    
 4939.5000
     6.541000   -23.726034                                                    
 4940.0000
     6.466000   -24.284777                                                    
 4940.5000
     6.528000   -24.863180                                                    
 4941.0000
     6.356000   -25.439947                                                    
 4941.5000
     6.301000   -26.019989                                                    
 4942.0000
     6.159000   -26.598392                                                    
 4942.5000
     6.072000   -27.514336                                                    
 4943.0000
     5.824000   -27.999344                                                    
 4943.5000
     5.781000   -28.007536                                                    
 4944.0000
     5.737000   -28.012451                                                    
 4944.5000
     5.719000   -28.325413                                                    
 4945.0000
     5.639000   -28.897261                                                    
 4945.5000
     5.717000   -29.170900                                                    
 4946.0000
     5.717000   -29.172537                                                    
 4946.5000
     5.547000   -29.174175                                                    
 4947.0000
     5.482000   -29.177454                                                    
 4947.5000
     5.482000   -29.179090                                                    
 4948.0000
     5.714000   -29.180729                                                    
 4948.5000
     5.713000   -28.931669                                                    
 4949.0000
     5.596000   -28.800587                                                    
 4949.5000
     5.533000   -29.038176                                                    
 4950.0000
     5.478000   -28.805504                                                    
 4950.5000
     5.477000   -28.807144                                                    
 4951.0000
     5.477000   -28.808781                                                    
 4951.5000
     5.580000   -28.618710                                                    
 4952.0000
     5.600000   -28.058331                                                    
 4952.5000
     5.707000   -27.499590                                                    
 4953.0000
     5.705000   -27.280024                                                    
 4953.5000
     5.703000   -27.281662                                                    
 4954.0000
     5.702000   -27.283302                                                    
 4954.5000
     5.739000   -27.611008                                                    
 4955.0000
     6.101000   -27.330820                                                    
 4955.5000
     6.163000   -27.289856                                                    
 4956.0000
     6.161000   -27.291494                                                    
 4956.5000
     6.160000   -27.293131                                                    
 4957.0000
     6.158000   -27.294773                                                    
 4957.5000
     6.273000   -27.248894                                                    
 4958.0000
     6.354000   -26.916269                                                    
 4958.5000
     6.409000   -26.940849                                                    
 4959.0000
     6.502000   -27.302963                                                    
 4959.5000
     6.617000   -27.304602                                                    
 4960.0000
     6.615000   -27.306242                                                    
 4960.5000
     6.614000   -27.307880                                                    
 4961.0000
     6.612000   -27.696213                                                    
 4961.5000
     6.620000   -28.040308                                                    
 4962.0000
     6.726000   -28.325413                                                    
 4962.5000
     6.719000   -27.765032                                                    
 4963.0000
     6.606000   -27.702766                                                    
 4963.5000
     6.721000   -28.002619                                                    
 4964.0000
     6.778000   -28.091103                                                    
 4964.5000
     6.834000   -28.092739                                                    
 4965.0000
     6.890000   -28.022284                                                    
 4965.5000
     6.946000   -27.053905                                                    
 4966.0000
     7.002000   -25.569389                                                    
 4966.5000
     7.058000   -24.645254                                                    
 4967.0000
     7.221000   -24.255283                                                    
 4967.5000
     7.393000   -23.694902                                                    
 4968.0000
     7.448000   -22.775682                                                    
 4968.5000
     7.619000   -22.192364                                                    
 4969.0000
     7.941000   -21.966244                                                    
 4969.5000
     8.196000   -21.584465                                                    
 4970.0000
     8.251000   -21.586103                                                    
 4970.5000
     8.082000   -21.481237                                                    
 4971.0000
     7.843000   -21.204325                                                    
 4971.5000
     7.668000   -21.287889                                                    
 4972.0000
     7.514000   -22.125183                                                    
 4972.5000
     7.513000   -22.813368                                                    
 4973.0000
     7.394000   -23.381941                                                    
 4973.5000
     7.393000   -23.565456                                                    
 4974.0000
     7.391000   -23.676880                                                    
 4974.5000
     7.320000   -23.499918                                                    
 4975.0000
     7.271000   -23.141077                                                    
 4975.5000
     7.270000   -23.526133                                                    
 4976.0000
     7.142000   -23.709650                                                    
 4976.5000
     6.915000   -23.914469                                                    
 4977.0000
     6.795000   -24.463377                                                    
 4977.5000
     6.622000   -25.033588                                                    
 4978.0000
     6.563000   -25.456333                                                    
