~VERSION INFORMATION
 VERS.                 2.0:   CWLS Log Ascii Standard    
 WRAP.                 YES:   Multiple Lines per Depth   
~WELL INFORMATION
#MNEM.UNIT              DATA                DESCRIPTION OF MNEMONIC  
#---------              ----                -----------------------  
 STRT  .FT         4578.0000                :Top Depth  
 STOP  .FT         5960.0000                :Bottom Depth  
 STEP  .FT             .5000                :Increment  
 NULL  .          -99999.000                :Null Value  
 COMP  .  CITIES SERVICE OIL CO.            :Company   
 FLD   .  CAP YATES CONG.                   :Field  
 STAT  .  TEXAS                             :State  
 SRVC  .  SCHLUMBERGER                      :Service Company  
 WELL  .  ASHE C1                           :Well  
 UWI   .  424970137400                      :Unique Well ID  
~PARAMETER INFORMATION
#MNEM.UNIT        Value       Description                
#---------    -------------   -------------------------- 
 RUN   .                 1:   Run Number                 
 DATUM .FT        943.0000:   Datum                      
 AMST  .DEG.F      80.0000:   Annual Mean Surface Temp.  
 BHT   .DEG.F     128.0000:   Bottom Hole Temperature    
 TD    .FT       5947.0000:   Loggers Total Depth        
 BITSIZ.IN          8.7500:   Bit Size                   
 MW    .LB/USGAL    9.8000:   Mud Weight                 
 RM    .OHM-M       2.6000:   Mud Resistivity            
 RMMT  .DEG.F      85.0000:   Mud Resistivity Meas. Temp.
 RMF   .OHM-M       1.4000:   Mud Filtrate Resistivity   
 RMFMT .DEG.F     128.0000:   Mud Filtrate Res.Meas.Temp.
 RMC   .OHM-M       1.7000:   Mud Cake Resistivity       
 RMCMT .DEG.F     128.0000:   Mud Cake Res. Meas. Temp.  
 SALFM .PPM      150000.00:   Formation Water Salinity   
~CURVE INFORMATION
#MNEM.UNIT       API Code     Curve Description          
#---------    -------------   -------------------------- 
 DEPTH .FT                    : Depth                                   
 RILD  .OHMM                  : Deep Induction Resistivity              
 SP    .MV                    : Spontaneous Potential                   
~A Log Data Section - Number of Curves =     3
# ...
 5646.0000
     9.651000   -16.509911                                                    
 5646.5000
     9.651000   -17.085037                                                    
 5647.0000
     9.302000   -17.660166                                                    
 5647.5000
     9.217000   -18.803865                                                    
 5648.0000
     9.001000   -20.350645                                                    
 5648.5000
     9.186000   -20.575125                                                    
 5649.0000
     9.418000   -25.810257                                                    
 5649.5000
     8.912000   -27.684742                                                    
 5650.0000
     8.113000   -29.257742                                                    
 5650.5000
     7.458000   -29.595280                                                    
 5651.0000
     6.804000   -30.022938                                                    
 5651.5000
     6.150000   -30.832378                                                    
 5652.0000
     5.495000   -31.522202                                                    
 5652.5000
     5.043000   -31.523840                                                    
 5653.0000
     5.116000   -31.140423                                                    
 5653.5000
     5.183000   -31.143698                                                    
 5654.0000
     5.232000   -31.145338                                                    
 5654.5000
     5.232000   -30.960182                                                    
 5655.0000
     5.349000   -30.765198                                                    
 5655.5000
     5.520000   -30.383417                                                    
 5656.0000
     5.581000   -30.036047                                                    
 5656.5000
     5.843000   -29.477304                                                    
 5657.0000
     6.045000   -28.915287                                                    
 5657.5000
     6.202000   -28.471243                                                    
 5658.0000
     6.468000   -28.472881                                                    
 5658.5000
     6.911000   -28.272980                                                    
 5659.0000
     7.839000   -26.894966                                                    
 5659.5000
     9.135000   -25.444862                                                    
 5660.0000
    10.491000   -23.267244                                                    
 5660.5000
    11.848000   -22.721611                                                    
 5661.0000
    13.205000   -22.524986                                                    
 5661.5000
    14.562000   -22.341469                                                    
 5662.0000
    15.825000   -22.344746                                                    
 5662.5000
    16.936001   -22.346386                                                    
 5663.0000
    17.679001   -22.348024                                                    
 5663.5000
    17.665001   -22.349663                                                    
 5664.0000
    17.122000   -21.966244                                                    
 5664.5000
    16.146000   -22.303783                                                    
 5665.0000
    15.200000   -22.492214                                                    
 5665.5000
    14.273000   -23.401602                                                    
 5666.0000
    13.345000   -24.419136                                                    
 5666.5000
    12.418000   -25.672619                                                    
 5667.0000
    11.491000   -27.273470                                                    
 5667.5000
    10.563000   -28.792397                                                    
 5668.0000
     9.760000   -30.893002                                                    
 5668.5000
     9.224000   -33.014908                                                    
 5669.0000
     9.052000   -35.136818                                                    
 5669.5000
     9.221000   -36.196949                                                    
 5670.0000
     8.985000   -35.643124                                                    
 5670.5000
     8.640000   -33.986565                                                    
 5671.0000
     8.713000   -33.131248                                                    
 5671.5000
     9.130000   -33.132885                                                    
 5672.0000
     9.390000   -33.267246                                                    
 5672.5000
     9.656000   -33.842373                                                    
 5673.0000
    10.349000   -36.994919                                                    
 5673.5000
    13.062000   -40.455513                                                    
 5674.0000
    15.775000   -43.916103                                                    
 5674.5000
    18.487000   -47.376698                                                    
 5675.0000
    21.200001   -50.837292                                                    
 5675.5000
    23.912001   -54.297882                                                    
 5676.0000
    25.900999   -57.758480                                                    
 5676.5000
    27.160999   -61.219074                                                    
 5677.0000
    27.777000   -64.679665                                                    
 5677.5000
    28.465000   -68.140259                                                    
 5678.0000
    29.735001   -71.600853                                                    
 5678.5000
    31.643999   -75.063080                                                    
 5679.0000
    35.938999   -78.523682                                                    
 5679.5000
    40.234001   -81.982635                                                    
 5680.0000
    44.528999   -85.443230                                                    
 5680.5000
    48.824001   -88.903816                                                    
 5681.0000
    54.546001   -89.505165                                                    
 5681.5000
    55.286999   -89.981979                                                    
 5682.0000
    55.379002   -90.000000                                                    
 5682.5000
    55.466000   -89.800102                                                    
 5683.0000
    55.720001   -89.018517                                                    
 5683.5000
    55.863998   -87.715874                                                    
 5684.0000
    55.862999   -86.531212                                                    
 5684.5000
    55.841999   -83.798134                                                    
 5685.0000
    55.669998   -77.991158                                                    
 5685.5000
    55.398998   -72.182533                                                    
 5686.0000
    55.398998   -66.375557                                                    
 5686.5000
    55.387001   -60.568577                                                    
 5687.0000
    55.283001   -54.761589                                                    
 5687.5000
    54.891998   -48.954613                                                    
 5688.0000
    48.021999   -43.145992                                                    
 5688.5000
    42.686001   -37.676552                                                    
 5689.0000
    37.348999   -34.442078                                                    
 5689.5000
    32.013000   -33.149269                                                    
 5690.0000
    31.319000   -32.821560                                                    
