~VERSION INFORMATION
 VERS.                 2.0:   CWLS Log Ascii Standard    
 WRAP.                 YES:   Multiple Lines per Depth   
~WELL INFORMATION
#MNEM.UNIT              DATA                DESCRIPTION OF MNEMONIC  
#---------              ----                -----------------------  
 STRT  .FT         4578.0000                :Top Depth  
 STOP  .FT         5960.0000                :Bottom Depth  
 STEP  .FT             .5000                :Increment  
 NULL  .          -99999.000                :Null Value  
 COMP  .  CITIES SERVICE OIL CO.            :Company   
 FLD   .  CAP YATES CONG.                   :Field  
 STAT  .  TEXAS                             :State  
 SRVC  .  SCHLUMBERGER                      :Service Company  
 WELL  .  ASHE C1                           :Well  
 UWI   .  424970137400                      :Unique Well ID  
~PARAMETER INFORMATION
#MNEM.UNIT        Value       Description                
#---------    -------------   -------------------------- 
 RUN   .                 1:   Run Number                 
 DATUM .FT        943.0000:   Datum                      
 AMST  .DEG.F      80.0000:   Annual Mean Surface Temp.  
 BHT   .DEG.F     128.0000:   Bottom Hole Temperature    
 TD    .FT       5947.0000:   Loggers Total Depth        
 BITSIZ.IN          8.7500:   Bit Size                   
 MW    .LB/USGAL    9.8000:   Mud Weight                 
 RM    .OHM-M       2.6000:   Mud Resistivity            
 RMMT  .DEG.F      85.0000:   Mud Resistivity Meas. Temp.
 RMF   .OHM-M       1.4000:   Mud Filtrate Resistivity   
 RMFMT .DEG.F     128.0000:   Mud Filtrate Res.Meas.Temp.
 RMC   .OHM-M       1.7000:   Mud Cake Resistivity       
 RMCMT .DEG.F     128.0000:   Mud Cake Res. Meas. Temp.  
 SALFM .PPM      150000.00:   Formation Water Salinity   
~CURVE INFORMATION
#MNEM.UNIT       API Code     Curve Description          
#---------    -------------   -------------------------- 
 DEPTH .FT                    : Depth                                   
 RILD  .OHMM                  : Deep Induction Resistivity              
 SP    .MV                    : Spontaneous Potential                   
~A Log Data Section - Number of Curves =     3
# ...
 5824.0000
    16.167000   -18.746517                                                    
 5824.5000
    16.337999   -19.279041                                                    
 5825.0000
    16.601999   -19.854168                                                    
 5825.5000
    17.407000   -19.636242                                                    
 5826.0000
    18.704000   -19.777157                                                    
 5826.5000
    18.875000   -19.908239                                                    
 5827.0000
    19.118999   -19.909878                                                    
 5827.5000
    19.709999   -20.296574                                                    
 5828.0000
    20.323999   -20.298212                                                    
 5828.5000
    21.090000   -20.683268                                                    
 5829.0000
    21.974001   -20.970013                                                    
 5829.5000
    22.857000   -21.202686                                                    
 5830.0000
    23.757000   -22.071110                                                    
 5830.5000
    24.659000   -22.228411                                                    
 5831.0000
    25.561001   -22.230049                                                    
 5831.5000
    26.462999   -21.848270                                                    
 5832.0000
    27.365000   -21.849907                                                    
 5832.5000
    28.267000   -21.899065                                                    
 5833.0000
    29.169001   -22.238241                                                    
 5833.5000
    30.070999   -22.275928                                                    
 5834.0000
    30.973000   -22.624937                                                    
 5834.5000
    31.875000   -23.011633                                                    
 5835.0000
    33.386002   -23.226282                                                    
 5835.5000
    35.390999   -23.416351                                                    
 5836.0000
    37.395000   -23.991478                                                    
 5836.5000
    39.398998   -24.579716                                                    
 5837.0000
    41.868000   -25.325251                                                    
 5837.5000
    45.506001   -25.521873                                                    
 5838.0000
    47.835999   -25.808619                                                    
 5838.5000
    49.566002   -26.097000                                                    
 5839.0000
    49.773998   -25.923315                                                    
 5839.5000
    54.676998   -25.810257                                                    
 5840.0000
    54.848000   -25.952808                                                    
 5840.5000
    55.018002   -26.097000                                                    
 5841.0000
    55.257000   -26.921185                                                    
 5841.5000
    55.723999   -27.966574                                                    
 5842.0000
    56.457001   -28.735046                                                    
 5842.5000
    56.971001   -29.896770                                                    
 5843.0000
    57.146000   -30.501390                                                    
 5843.5000
    57.317001   -30.725872                                                    
 5844.0000
    57.397999   -30.729147                                                    
 5844.5000
    57.326000   -30.370308                                                    
 5845.0000
    57.008999   -29.752581                                                    
 5845.5000
    56.661999   -29.136488                                                    
 5846.0000
    56.314999   -28.518761                                                    
 5846.5000
    55.966999   -27.901030                                                    
 5847.0000
    55.502998   -27.286577                                                    
 5847.5000
    55.057999   -26.668850                                                    
 5848.0000
    48.096001   -26.054399                                                    
 5848.5000
    44.571999   -25.153200                                                    
 5849.0000
    41.047001   -24.227428                                                    
 5849.5000
    38.709999   -24.804193                                                    
 5850.0000
    38.709999   -25.376045                                                    
 5850.5000
    38.819000   -25.377682                                                    
 5851.0000
    39.596001   -25.379320                                                    
 5851.5000
    47.514000   -25.554644                                                    
 5852.0000
    55.049000   -26.131409                                                    
 5852.5000
    55.488998   -25.610355                                                    
 5853.0000
    56.053001   -25.387514                                                    
 5853.5000
    56.223999   -24.620678                                                    
 5854.0000
    56.278999   -23.996393                                                    
 5854.5000
    56.278999   -23.259050                                                    
 5855.0000
    56.278999   -22.425035                                                    
 5855.5000
    56.278999   -21.173193                                                    
 5856.0000
    56.278999   -20.922495                                                    
 5856.5000
    56.278999   -20.360477                                                    
 5857.0000
    56.175999   -20.026215                                                    
 5857.5000
    56.161999   -18.875961                                                    
 5858.0000
    56.161999   -18.679337                                                    
 5858.5000
    56.125000   -18.495819                                                    
 5859.0000
    56.046001   -17.935440                                                    
 5859.5000
    56.046001   -17.375059                                                    
 5860.0000
    56.046001   -17.348843                                                    
 5860.5000
    56.046001   -17.352119                                                    
 5861.0000
    56.046001   -16.970341                                                    
 5861.5000
    56.068001   -16.971979                                                    
 5862.0000
    56.161999   -16.588562                                                    
 5862.5000
    56.161999   -16.590199                                                    
 5863.0000
    56.161999   -16.208420                                                    
 5863.5000
    56.174000   -16.211697                                                    
 5864.0000
    56.278999   -15.829918                                                    
 5864.5000
    56.278999   -15.831556                                                    
 5865.0000
    56.278999   -15.833195                                                    
 5865.5000
    56.278999   -15.834833                                                    
 5866.0000
    56.334999   -15.838110                                                    
 5866.5000
    56.395000   -15.839749                                                    
 5867.0000
    56.395000   -15.841387                                                    
 5867.5000
    56.395000   -15.843026                                                    
 5868.0000
    56.395000   -15.844664                                                    
