~VERSION INFORMATION
 VERS.                 2.0:   CWLS Log Ascii Standard    
 WRAP.                 YES:   Multiple Lines per Depth   
~WELL INFORMATION
#MNEM.UNIT              DATA                DESCRIPTION OF MNEMONIC  
#---------              ----                -----------------------  
 STRT  .FT         4578.0000                :Top Depth  
 STOP  .FT         5960.0000                :Bottom Depth  
 STEP  .FT             .5000                :Increment  
 NULL  .          -99999.000                :Null Value  
 COMP  .  CITIES SERVICE OIL CO.            :Company   
 FLD   .  CAP YATES CONG.                   :Field  
 STAT  .  TEXAS                             :State  
 SRVC  .  SCHLUMBERGER                      :Service Company  
 WELL  .  ASHE C1                           :Well  
 UWI   .  424970137400                      :Unique Well ID  
~PARAMETER INFORMATION
#MNEM.UNIT        Value       Description                
#---------    -------------   -------------------------- 
 RUN   .                 1:   Run Number                 
 DATUM .FT        943.0000:   Datum                      
 AMST  .DEG.F      80.0000:   Annual Mean Surface Temp.  
 BHT   .DEG.F     128.0000:   Bottom Hole Temperature    
 TD    .FT       5947.0000:   Loggers Total Depth        
 BITSIZ.IN          8.7500:   Bit Size                   
 MW    .LB/USGAL    9.8000:   Mud Weight                 
 RM    .OHM-M       2.6000:   Mud Resistivity            
 RMMT  .DEG.F      85.0000:   Mud Resistivity Meas. Temp.
 RMF   .OHM-M       1.4000:   Mud Filtrate Resistivity   
 RMFMT .DEG.F     128.0000:   Mud Filtrate Res.Meas.Temp.
 RMC   .OHM-M       1.7000:   Mud Cake Resistivity       
 RMCMT .DEG.F     128.0000:   Mud Cake Res. Meas. Temp.  
 SALFM .PPM      150000.00:   Formation Water Salinity   
~CURVE INFORMATION
#MNEM.UNIT       API Code     Curve Description          
#---------    -------------   -------------------------- 
 DEPTH .FT                    : Depth                                   
 RILD  .OHMM                  : Deep Induction Resistivity              
 SP    .MV                    : Spontaneous Potential                   
~A Log Data Section - Number of Curves =     3
# ...
 5290.0000
    36.902000   -47.912502                                                    
 5290.5000
    32.632999   -44.920532                                                    
 5291.0000
    28.364000   -41.396034                                                    
 5291.5000
    23.906000   -37.869900                                                    
 5292.0000
    18.815001   -34.345402                                                    
 5292.5000
    17.563999   -30.820908                                                    
 5293.0000
    16.313000   -27.294773                                                    
 5293.5000
    15.062000   -23.768637                                                    
 5294.0000
    13.811000   -22.282484                                                    
 5294.5000
    12.560000   -21.168276                                                    
 5295.0000
    11.309000   -20.539078                                                    
 5295.5000
    10.058000   -20.783218                                                    
 5296.0000
     8.807000   -21.014254                                                    
 5296.5000
     7.882000   -21.695885                                                    
 5297.0000
     7.290000   -21.733572                                                    
 5297.5000
     6.947000   -22.085857                                                    
 5298.0000
     6.631000   -22.087496                                                    
 5298.5000
     6.372000   -21.882679                                                    
 5299.0000
     6.316000   -21.322298                                                    
 5299.5000
     6.226000   -20.940519                                                    
 5300.0000
     6.226000   -20.580040                                                    
 5300.5000
     6.225000   -20.779942                                                    
 5301.0000
     6.211000   -20.562017                                                    
 5301.5000
     6.109000   -20.563656                                                    
 5302.0000
     5.985000   -20.565294                                                    
 5302.5000
     5.941000   -20.566933                                                    
 5303.0000
     5.644000   -20.889725                                                    
 5303.5000
     5.473000   -21.327215                                                    
 5304.0000
     5.415000   -22.428312                                                    
 5304.5000
     5.300000   -23.129608                                                    
 5305.0000
     5.193000   -24.959854                                                    
 5305.5000
     5.138000   -26.234636                                                    
 5306.0000
     5.068000   -26.726200                                                    
 5306.5000
     4.952000   -26.980171                                                    
 5307.0000
     4.952000   -26.729475                                                    
 5307.5000
     4.984000   -27.116169                                                    
 5308.0000
     5.067000   -27.117811                                                    
 5308.5000
     5.092000   -26.736031                                                    
 5309.0000
     5.339000   -26.457479                                                    
 5309.5000
     5.776000   -26.277239                                                    
 5310.0000
     7.176000   -25.215466                                                    
 5310.5000
     8.576000   -23.632637                                                    
 5311.0000
     9.976000   -22.859247                                                    
 5311.5000
    11.376000   -22.125183                                                    
 5312.0000
    12.776000   -20.834013                                                    
 5312.5000
    14.176000   -18.843189                                                    
 5313.0000
    15.576000   -18.304111                                                    
 5313.5000
    17.106001   -17.984596                                                    
 5314.0000
    18.507999   -17.925610                                                    
 5314.5000
    18.914000   -17.927248                                                    
 5315.0000
    18.549999   -17.928886                                                    
 5315.5000
    17.521000   -17.930525                                                    
 5316.0000
    16.083000   -17.547106                                                    
 5316.5000
    14.903000   -17.548744                                                    
 5317.0000
    14.033000   -17.481565                                                    
 5317.5000
    13.285000   -17.170242                                                    
 5318.0000
    12.899000   -17.612648                                                    
 5318.5000
    12.513000   -17.941994                                                    
 5319.0000
    12.341000   -17.943632                                                    
 5319.5000
    12.522000   -18.177944                                                    
 5320.0000
    12.858000   -18.364737                                                    
 5320.5000
    13.353000   -18.939863                                                    
 5321.0000
    14.093000   -19.103718                                                    
 5321.5000
    14.557000   -19.105356                                                    
 5322.0000
    14.893000   -19.106995                                                    
 5322.5000
    15.117000   -19.110271                                                    
 5323.0000
    15.570000   -19.111910                                                    
 5323.5000
    16.221001   -19.113550                                                    
 5324.0000
    17.434000   -19.115187                                                    
 5324.5000
    19.132000   -19.669014                                                    
 5325.0000
    21.028999   -20.245779                                                    
 5325.5000
    22.945999   -21.332129                                                    
 5326.0000
    24.049000   -23.776829                                                    
 5326.5000
    21.686001   -26.265770                                                    
 5327.0000
    17.863001   -28.754707                                                    
 5327.5000
    14.040000   -30.491562                                                    
 5328.0000
    10.673000   -30.974930                                                    
 5328.5000
     9.414000   -29.860723                                                    
 5329.0000
     9.049000   -29.121742                                                    
 5329.5000
     8.313000   -29.121742                                                    
 5330.0000
     7.576000   -28.759624                                                    
 5330.5000
     7.156000   -28.200884                                                    
 5331.0000
     6.985000   -27.974764                                                    
 5331.5000
     6.814000   -27.976404                                                    
 5332.0000
     6.730000   -27.656887                                                    
 5332.5000
     6.472000   -27.596264                                                    
 5333.0000
     6.185000   -26.998198                                                    
 5333.5000
     5.934000   -25.680811                                                    
 5334.0000
     5.707000   -25.682449                                                    
