~VERSION INFORMATION
 VERS.                 2.0:   CWLS Log Ascii Standard    
 WRAP.                 YES:   Multiple Lines per Depth   
~WELL INFORMATION
#MNEM.UNIT              DATA                DESCRIPTION OF MNEMONIC  
#---------              ----                -----------------------  
 STRT  .FT         4578.0000                :Top Depth  
 STOP  .FT         5960.0000                :Bottom Depth  
 STEP  .FT             .5000                :Increment  
 NULL  .          -99999.000                :Null Value  
 COMP  .  CITIES SERVICE OIL CO.            :Company   
 FLD   .  CAP YATES CONG.                   :Field  
 STAT  .  TEXAS                             :State  
 SRVC  .  SCHLUMBERGER                      :Service Company  
 WELL  .  ASHE C1                           :Well  
 UWI   .  424970137400                      :Unique Well ID  
~PARAMETER INFORMATION
#MNEM.UNIT        Value       Description                
#---------    -------------   -------------------------- 
 RUN   .                 1:   Run Number                 
 DATUM .FT        943.0000:   Datum                      
 AMST  .DEG.F      80.0000:   Annual Mean Surface Temp.  
 BHT   .DEG.F     128.0000:   Bottom Hole Temperature    
 TD    .FT       5947.0000:   Loggers Total Depth        
 BITSIZ.IN          8.7500:   Bit Size                   
 MW    .LB/USGAL    9.8000:   Mud Weight                 
 RM    .OHM-M       2.6000:   Mud Resistivity            
 RMMT  .DEG.F      85.0000:   Mud Resistivity Meas. Temp.
 RMF   .OHM-M       1.4000:   Mud Filtrate Resistivity   
 RMFMT .DEG.F     128.0000:   Mud Filtrate Res.Meas.Temp.
 RMC   .OHM-M       1.7000:   Mud Cake Resistivity       
 RMCMT .DEG.F     128.0000:   Mud Cake Res. Meas. Temp.  
 SALFM .PPM      150000.00:   Formation Water Salinity   
~CURVE INFORMATION
#MNEM.UNIT       API Code     Curve Description          
#---------    -------------   -------------------------- 
 DEPTH .FT                    : Depth                                   
 RILD  .OHMM                  : Deep Induction Resistivity              
 SP    .MV                    : Spontaneous Potential                   
~A Log Data Section - Number of Curves =     3
# ...
 4667.0000
     4.954000   -18.923479                                                    
 4667.5000
     4.942000   -18.926756                                                    
 4668.0000
     4.902000   -18.928394                                                    
 4668.5000
     4.953000   -19.074224                                                    
 4669.0000
     5.008000   -19.970505                                                    
 4669.5000
     5.287000   -21.630344                                                    
 4670.0000
     5.301000   -23.041126                                                    
 4670.5000
     5.300000   -24.510893                                                    
 4671.0000
     5.300000   -23.257412                                                    
 4671.5000
     5.300000   -22.003931                                                    
 4672.0000
     5.327000   -20.807798                                                    
 4672.5000
     5.497000   -20.299852                                                    
 4673.0000
     5.648000   -20.121250                                                    
 4673.5000
     5.575000   -20.504669                                                    
 4674.0000
     5.298000   -21.645090                                                    
 4674.5000
     5.423000   -23.901358                                                    
 4675.0000
     5.763000   -26.804850                                                    
 4675.5000
     5.762000   -28.236931                                                    
 4676.0000
     5.548000   -28.118958                                                    
 4676.5000
     5.413000   -28.025558                                                    
 4677.0000
     5.412000   -28.271339                                                    
 4677.5000
     5.412000   -28.517122                                                    
 4678.0000
     5.412000   -28.761265                                                    
 4678.5000
     5.412000   -29.007046                                                    
 4679.0000
     5.411000   -29.447811                                                    
 4679.5000
     5.411000   -29.693590                                                    
 4680.0000
     5.411000   -29.875469                                                    
 4680.5000
     5.417000   -30.019663                                                    
 4681.0000
     5.647000   -29.839422                                                    
 4681.5000
     5.759000   -28.004257                                                    
 4682.0000
     5.591000   -25.793871                                                    
 4682.5000
     5.316000   -25.087662                                                    
 4683.0000
     5.292000   -24.828770                                                    
 4683.5000
     5.292000   -24.592823                                                    
 4684.0000
     5.292000   -24.179909                                                    
 4684.5000
     5.292000   -24.063574                                                    
 4685.0000
     5.291000   -24.068491                                                    
 4685.5000
     5.291000   -24.517450                                                    
 4686.0000
     5.291000   -25.661150                                                    
 4686.5000
     5.358000   -26.406685                                                    
 4687.0000
     5.532000   -27.170242                                                    
 4687.5000
     5.813000   -28.315580                                                    
 4688.0000
     5.871000   -29.118464                                                    
 4688.5000
     5.754000   -29.470751                                                    
 4689.0000
     5.856000   -30.480091                                                    
 4689.5000
     5.870000   -31.779451                                                    
 4690.0000
     5.776000   -31.479597                                                    
 4690.5000
     5.460000   -30.389971                                                    
 4691.0000
     5.287000   -30.257248                                                    
 4691.5000
     5.266000   -29.977058                                                    
 4692.0000
     5.171000   -29.916435                                                    
 4692.5000
     5.170000   -29.919710                                                    
 4693.0000
     5.170000   -29.503521                                                    
 4693.5000
     5.170000   -28.387678                                                    
 4694.0000
     5.169000   -27.271833                                                    
 4694.5000
     5.169000   -26.349337                                                    
 4695.0000
     5.169000   -25.977386                                                    
 4695.5000
     5.068000   -25.456333                                                    
 4696.0000
     4.935000   -24.342127                                                    
 4696.5000
     4.935000   -23.224642                                                    
 4697.0000
     4.819000   -22.349663                                                    
 4697.5000
     4.818000   -22.192364                                                    
 4698.0000
     4.953000   -21.913811                                                    
 4698.5000
     5.050000   -21.443552                                                    
 4699.0000
     5.050000   -21.058495                                                    
 4699.5000
     5.112000   -21.061771                                                    
 4700.0000
     5.282000   -21.210878                                                    
 4700.5000
     5.281000   -21.790922                                                    
 4701.0000
     5.281000   -21.984268                                                    
 4701.5000
     5.732000   -22.567589                                                    
 4702.0000
     5.969000   -23.286905                                                    
 4702.5000
     6.094000   -24.453545                                                    
 4703.0000
     6.094000   -24.817301                                                    
 4703.5000
     6.135000   -24.247089                                                    
 4704.0000
     6.502000   -23.293459                                                    
 4704.5000
     6.981000   -23.028019                                                    
 4705.0000
     7.139000   -24.147141                                                    
 4705.5000
     6.957000   -25.277731                                                    
 4706.0000
     6.701000   -26.636080                                                    
 4706.5000
     6.440000   -26.909716                                                    
 4707.0000
     6.524000   -26.419792                                                    
 4707.5000
     6.835000   -23.793215                                                    
 4708.0000
     7.100000   -21.356709                                                    
 4708.5000
     7.272000   -20.217924                                                    
 4709.0000
     7.518000   -19.901686                                                    
 4709.5000
     7.718000   -19.092247                                                    
 4710.0000
     7.787000   -18.417171                                                    
 4710.5000
     7.959000   -18.191051                                                    
 4711.0000
     8.131000   -18.005898                                                    
