~VERSION INFORMATION
 VERS.                 2.0:   CWLS Log Ascii Standard    
 WRAP.                 YES:   Multiple Lines per Depth   
~WELL INFORMATION
#MNEM.UNIT              DATA                DESCRIPTION OF MNEMONIC  
#---------              ----                -----------------------  
 STRT  .FT         4578.0000                :Top Depth  
 STOP  .FT         5960.0000                :Bottom Depth  
 STEP  .FT             .5000                :Increment  
 NULL  .          -99999.000                :Null Value  
 COMP  .  CITIES SERVICE OIL CO.            :Company   
 FLD   .  CAP YATES CONG.                   :Field  
 STAT  .  TEXAS                             :State  
 SRVC  .  SCHLUMBERGER                      :Service Company  
 WELL  .  ASHE C1                           :Well  
 UWI   .  424970137400                      :Unique Well ID  
~PARAMETER INFORMATION
#MNEM.UNIT        Value       Description                
#---------    -------------   -------------------------- 
 RUN   .                 1:   Run Number                 
 DATUM .FT        943.0000:   Datum                      
 AMST  .DEG.F      80.0000:   Annual Mean Surface Temp.  
 BHT   .DEG.F     128.0000:   Bottom Hole Temperature    
 TD    .FT       5947.0000:   Loggers Total Depth        
 BITSIZ.IN          8.7500:   Bit Size                   
 MW    .LB/USGAL    9.8000:   Mud Weight                 
 RM    .OHM-M       2.6000:   Mud Resistivity            
 RMMT  .DEG.F      85.0000:   Mud Resistivity Meas. Temp.
 RMF   .OHM-M       1.4000:   Mud Filtrate Resistivity   
 RMFMT .DEG.F     128.0000:   Mud Filtrate Res.Meas.Temp.
 RMC   .OHM-M       1.7000:   Mud Cake Resistivity       
 RMCMT .DEG.F     128.0000:   Mud Cake Res. Meas. Temp.  
 SALFM .PPM      150000.00:   Formation Water Salinity   
~CURVE INFORMATION
#MNEM.UNIT       API Code     Curve Description          
#---------    -------------   -------------------------- 
 DEPTH .FT                    : Depth                                   
 RILD  .OHMM                  : Deep Induction Resistivity              
 SP    .MV                    : Spontaneous Potential                   
~A Log Data Section - Number of Curves =     3
# ...
 5468.0000
     6.030000   -23.406519                                                    
 5468.5000
     6.200000   -22.565948                                                    
 5469.0000
     6.154000   -21.523840                                                    
 5469.5000
     6.089000   -21.214155                                                    
 5470.0000
     6.204000   -20.832376                                                    
 5470.5000
     6.405000   -20.834013                                                    
 5471.0000
     6.590000   -20.419464                                                    
 5471.5000
     6.761000   -19.860722                                                    
 5472.0000
     6.931000   -19.688677                                                    
 5472.5000
     7.013000   -19.690313                                                    
 5473.0000
     7.013000   -19.691954                                                    
 5473.5000
     6.928000   -20.448957                                                    
 5474.0000
     6.730000   -20.848763                                                    
 5474.5000
     6.467000   -20.850399                                                    
 5475.0000
     6.294000   -20.852039                                                    
 5475.5000
     6.201000   -20.853676                                                    
 5476.0000
     6.200000   -20.855316                                                    
 5476.5000
     6.346000   -20.714401                                                    
 5477.0000
     6.811000   -20.476814                                                    
 5477.5000
     7.444000   -20.093395                                                    
 5478.0000
     8.395000   -19.793543                                                    
 5478.5000
     9.654000   -18.091101                                                    
 5479.0000
    11.381000   -17.794525                                                    
 5479.5000
    13.271000   -17.730621                                                    
 5480.0000
    15.161000   -17.416023                                                    
 5480.5000
    17.052000   -17.801079                                                    
 5481.0000
    18.941999   -17.802719                                                    
 5481.5000
    20.832001   -18.187775                                                    
 5482.0000
    22.604000   -18.417171                                                    
 5482.5000
    23.934999   -18.577747                                                    
 5483.0000
    24.620001   -18.579386                                                    
 5483.5000
    25.076000   -18.964441                                                    
 5484.0000
    24.937000   -18.966082                                                    
 5484.5000
    24.160999   -18.967718                                                    
 5485.0000
    22.139999   -18.787479                                                    
 5485.5000
    20.445999   -18.589216                                                    
 5486.0000
    18.458000   -18.205797                                                    
 5486.5000
    16.471001   -18.207438                                                    
 5487.0000
    14.484000   -17.825659                                                    
 5487.5000
    12.500000   -17.827295                                                    
 5488.0000
    11.538000   -17.830574                                                    
 5488.5000
    10.775000   -17.522528                                                    
 5489.0000
    10.165000   -17.450432                                                    
 5489.5000
     9.555000   -17.452070                                                    
 5490.0000
     9.436000   -17.453709                                                    
 5490.5000
     8.984000   -18.025558                                                    
 5491.0000
     8.749000   -19.762411                                                    
 5491.5000
     8.290000   -20.052433                                                    
 5492.0000
     7.768000   -20.820906                                                    
 5492.5000
     7.133000   -22.275928                                                    
 5493.0000
     6.427000   -23.329510                                                    
 5493.5000
     6.081000   -23.907911                                                    
 5494.0000
     5.554000   -23.998032                                                    
 5494.5000
     5.382000   -24.283136                                                    
 5495.0000
     5.209000   -24.556776                                                    
 5495.5000
     5.036000   -25.433393                                                    
 5496.0000
     4.911000   -25.924953                                                    
 5496.5000
     4.807000   -26.198589                                                    
 5497.0000
     4.678000   -26.387020                                                    
 5497.5000
     4.678000   -26.962147                                                    
 5498.0000
     4.561000   -27.468456                                                    
 5498.5000
     4.561000   -27.470097                                                    
 5499.0000
     4.525000   -27.473372                                                    
 5499.5000
     4.444000   -27.714235                                                    
 5500.0000
     4.346000   -27.902670                                                    
 5500.5000
     4.230000   -28.246761                                                    
 5501.0000
     4.184000   -28.248400                                                    
 5501.5000
     4.094000   -28.250040                                                    
 5502.0000
     4.071000   -28.672783                                                    
 5502.5000
     3.978000   -29.618219                                                    
 5503.0000
     3.958000   -29.805012                                                    
 5503.5000
     3.935000   -30.178600                                                    
 5504.0000
     4.106000   -29.798458                                                    
 5504.5000
     4.479000   -28.312305                                                    
 5505.0000
     4.678000   -27.198099                                                    
 5505.5000
     4.849000   -26.085529                                                    
 5506.0000
     5.019000   -25.272814                                                    
 5506.5000
     5.135000   -25.090937                                                    
 5507.0000
     5.245000   -24.530558                                                    
 5507.5000
     5.366000   -24.132393                                                    
 5508.0000
     5.366000   -24.435522                                                    
 5508.5000
     5.320000   -24.507618                                                    
 5509.0000
     5.249000   -24.823854                                                    
 5509.5000
     5.248000   -25.657871                                                    
 5510.0000
     5.248000   -25.980665                                                    
 5510.5000
     5.978000   -25.982302                                                    
 5511.0000
     6.236000   -25.983940                                                    
 5511.5000
     6.461000   -25.600523                                                    
 5512.0000
     6.640000   -25.174503                                                    
