~VERSION INFORMATION
 VERS.                 2.0:   CWLS Log Ascii Standard    
 WRAP.                 YES:   Multiple Lines per Depth   
~WELL INFORMATION
#MNEM.UNIT              DATA                DESCRIPTION OF MNEMONIC  
#---------              ----                -----------------------  
 STRT  .FT         4578.0000                :Top Depth  
 STOP  .FT         5960.0000                :Bottom Depth  
 STEP  .FT             .5000                :Increment  
 NULL  .          -99999.000                :Null Value  
 COMP  .  CITIES SERVICE OIL CO.            :Company   
 FLD   .  CAP YATES CONG.                   :Field  
 STAT  .  TEXAS                             :State  
 SRVC  .  SCHLUMBERGER                      :Service Company  
 WELL  .  ASHE C1                           :Well  
 UWI   .  424970137400                      :Unique Well ID  
~PARAMETER INFORMATION
#MNEM.UNIT        Value       Description                
#---------    -------------   -------------------------- 
 RUN   .                 1:   Run Number                 
 DATUM .FT        943.0000:   Datum                      
 AMST  .DEG.F      80.0000:   Annual Mean Surface Temp.  
 BHT   .DEG.F     128.0000:   Bottom Hole Temperature    
 TD    .FT       5947.0000:   Loggers Total Depth        
 BITSIZ.IN          8.7500:   Bit Size                   
 MW    .LB/USGAL    9.8000:   Mud Weight                 
 RM    .OHM-M       2.6000:   Mud Resistivity            
 RMMT  .DEG.F      85.0000:   Mud Resistivity Meas. Temp.
 RMF   .OHM-M       1.4000:   Mud Filtrate Resistivity   
 RMFMT .DEG.F     128.0000:   Mud Filtrate Res.Meas.Temp.
 RMC   .OHM-M       1.7000:   Mud Cake Resistivity       
 RMCMT .DEG.F     128.0000:   Mud Cake Res. Meas. Temp.  
 SALFM .PPM      150000.00:   Formation Water Salinity   
~CURVE INFORMATION
#MNEM.UNIT       API Code     Curve Description          
#---------    -------------   -------------------------- 
 DEPTH .FT                    : Depth                                   
 RILD  .OHMM                  : Deep Induction Resistivity              
 SP    .MV                    : Spontaneous Potential                   
~A Log Data Section - Number of Curves =     3
# ...
 5201.0000
    27.309999   -20.147467                                                    
 5201.5000
    23.597000   -19.624773                                                    
 5202.0000
    20.145000   -19.393740                                                    
 5202.5000
    17.886000   -19.401932                                                    
 5203.0000
    11.515000   -19.408485                                                    
 5203.5000
    10.659000   -19.416679                                                    
 5204.0000
    10.113000   -18.282810                                                    
 5204.5000
     9.169000   -17.435686                                                    
 5205.0000
     8.166000   -17.137472                                                    
 5205.5000
     7.355000   -17.144026                                                    
 5206.0000
     6.215000   -17.150579                                                    
 5206.5000
     6.837000   -17.978041                                                    
 5207.0000
     6.709000   -19.056200                                                    
 5207.5000
     6.636000   -19.913157                                                    
 5208.0000
     6.635000   -20.493198                                                    
 5208.5000
     6.653000   -21.848270                                                    
 5209.0000
     6.858000   -22.180893                                                    
 5209.5000
     7.106000   -22.234964                                                    
 5210.0000
     7.210000   -22.815008                                                    
 5210.5000
     7.325000   -23.395048                                                    
 5211.0000
     7.381000   -23.516302                                                    
 5211.5000
     7.550000   -23.340979                                                    
 5212.0000
     7.902000   -22.855970                                                    
 5212.5000
     7.901000   -22.487301                                                    
 5213.0000
     7.784000   -22.056364                                                    
 5213.5000
     7.784000   -20.799604                                                    
 5214.0000
     7.816000   -19.385546                                                    
 5214.5000
     8.072000   -17.207930                                                    
 5215.0000
     8.408000   -15.482548                                                    
 5215.5000
     8.745000   -13.834179                                                    
 5216.0000
     8.887000   -13.458953                                                    
 5216.5000
     8.937000   -13.231196                                                    
 5217.0000
     8.936000   -13.090281                                                    
 5217.5000
     8.935000   -13.098475                                                    
 5218.0000
     8.934000   -13.123053                                                    
 5218.5000
     8.878000   -13.704733                                                    
 5219.0000
     9.250000   -13.886611                                                    
 5219.5000
     9.602000   -13.893165                                                    
 5220.0000
    10.132000   -13.899720                                                    
 5220.5000
    10.390000   -14.476484                                                    
 5221.0000
    10.551000   -14.682940                                                    
 5221.5000
    10.544000   -15.072913                                                    
 5222.0000
    10.896000   -15.443222                                                    
 5222.5000
    10.017000   -15.471078                                                    
 5223.0000
     9.578000   -15.829918                                                    
 5223.5000
     8.749000   -16.252661                                                    
 5224.0000
     8.071000   -15.923314                                                    
 5224.5000
     7.784000   -15.747991                                                    
 5225.0000
     8.024000   -14.882842                                                    
 5225.5000
     8.342000   -14.256921                                                    
 5226.0000
     8.342000   -13.986562                                                    
 5226.5000
     8.345000   -13.993117                                                    
 5227.0000
     8.516000   -13.999671                                                    
 5227.5000
     8.232000   -14.007863                                                    
 5228.0000
     8.222000   -14.014418                                                    
 5228.5000
     8.222000   -14.022610                                                    
 5229.0000
     8.221000   -13.789937                                                    
 5229.5000
     8.220000   -13.268883                                                    
 5230.0000
     8.291000   -13.059149                                                    
 5230.5000
     8.269000   -12.883826                                                    
 5231.0000
     8.333000   -12.718332                                                    
 5231.5000
     8.416000   -12.913320                                                    
 5232.0000
     8.310000   -13.303291                                                    
 5232.5000
     8.138000   -13.311484                                                    
 5233.0000
     8.114000   -13.147630                                                    
 5233.5000
     8.352000   -12.590527                                                    
 5234.0000
     8.560000   -12.180892                                                    
 5234.5000
     8.559000   -12.187448                                                    
 5235.0000
     8.558000   -12.194001                                                    
 5235.5000
     8.557000   -12.202193                                                    
 5236.0000
     8.557000   -12.208748                                                    
 5236.5000
     8.556000   -12.215302                                                    
 5237.0000
     8.555000   -11.840077                                                    
 5237.5000
     8.554000   -11.846631                                                    
 5238.0000
     8.458000   -11.853185                                                    
 5238.5000
     8.361000   -11.859740                                                    
 5239.0000
     8.230000   -11.866294                                                    
 5239.5000
     8.203000   -12.126821                                                    
 5240.0000
     8.202000   -12.208748                                                    
 5240.5000
     7.970000   -11.646729                                                    
 5241.0000
     7.969000   -11.497622                                                    
 5241.5000
     7.953000   -11.499261                                                    
 5242.0000
     7.851000   -11.484514                                                    
 5242.5000
     7.842000   -11.119120                                                    
 5243.0000
     7.734000   -10.743894                                                    
 5243.5000
     7.733000   -10.738979                                                    
 5244.0000
     7.675000   -11.106012                                                    
 5244.5000
     7.616000   -11.125674                                                    
 5245.0000
     7.615000   -11.128951                                                    
