~VERSION INFORMATION
 VERS.                 2.0:   CWLS Log Ascii Standard    
 WRAP.                 YES:   Multiple Lines per Depth   
~WELL INFORMATION
#MNEM.UNIT              DATA                DESCRIPTION OF MNEMONIC  
#---------              ----                -----------------------  
 STRT  .FT         4578.0000                :Top Depth  
 STOP  .FT         5960.0000                :Bottom Depth  
 STEP  .FT             .5000                :Increment  
 NULL  .          -99999.000                :Null Value  
 COMP  .  CITIES SERVICE OIL CO.            :Company   
 FLD   .  CAP YATES CONG.                   :Field  
 STAT  .  TEXAS                             :State  
 SRVC  .  SCHLUMBERGER                      :Service Company  
 WELL  .  ASHE C1                           :Well  
 UWI   .  424970137400                      :Unique Well ID  
~PARAMETER INFORMATION
#MNEM.UNIT        Value       Description                
#---------    -------------   -------------------------- 
 RUN   .                 1:   Run Number                 
 DATUM .FT        943.0000:   Datum                      
 AMST  .DEG.F      80.0000:   Annual Mean Surface Temp.  
 BHT   .DEG.F     128.0000:   Bottom Hole Temperature    
 TD    .FT       5947.0000:   Loggers Total Depth        
 BITSIZ.IN          8.7500:   Bit Size                   
 MW    .LB/USGAL    9.8000:   Mud Weight                 
 RM    .OHM-M       2.6000:   Mud Resistivity            
 RMMT  .DEG.F      85.0000:   Mud Resistivity Meas. Temp.
 RMF   .OHM-M       1.4000:   Mud Filtrate Resistivity   
 RMFMT .DEG.F     128.0000:   Mud Filtrate Res.Meas.Temp.
 RMC   .OHM-M       1.7000:   Mud Cake Resistivity       
 RMCMT .DEG.F     128.0000:   Mud Cake Res. Meas. Temp.  
 SALFM .PPM      150000.00:   Formation Water Salinity   
~CURVE INFORMATION
#MNEM.UNIT       API Code     Curve Description          
#---------    -------------   -------------------------- 
 DEPTH .FT                    : Depth                                   
 RILD  .OHMM                  : Deep Induction Resistivity              
 SP    .MV                    : Spontaneous Potential                   
~A Log Data Section - Number of Curves =     3
# ...
 5112.0000
     7.899000   -25.207273                                                    
 5112.5000
     7.899000   -25.210550                                                    
 5113.0000
     7.898000   -25.212191                                                    
 5113.5000
     7.898000   -24.786169                                                    
 5114.0000
     7.831000   -23.673601                                                    
 5114.5000
     7.781000   -22.924791                                                    
 5115.0000
     7.781000   -22.744551                                                    
 5115.5000
     7.898000   -22.534817                                                    
 5116.0000
     8.073000   -22.385710                                                    
 5116.5000
     8.012000   -22.156315                                                    
 5117.0000
     7.895000   -22.295591                                                    
 5117.5000
     7.787000   -22.872355                                                    
 5118.0000
     7.779000   -23.062428                                                    
 5118.5000
     7.882000   -23.639191                                                    
 5119.0000
     7.749000   -23.591675                                                    
 5119.5000
     7.894000   -23.327871                                                    
 5120.0000
     7.855000   -22.852694                                                    
 5120.5000
     7.682000   -22.292315                                                    
 5121.0000
     7.626000   -21.735210                                                    
 5121.5000
     7.724000   -21.176470                                                    
 5122.0000
     7.687000   -20.275272                                                    
 5122.5000
     7.427000   -20.278549                                                    
 5123.0000
     7.427000   -20.901194                                                    
 5123.5000
     7.427000   -21.436996                                                    
 5124.0000
     7.405000   -21.846630                                                    
 5124.5000
     7.310000   -22.208748                                                    
 5125.0000
     7.310000   -22.223495                                                    
 5125.5000
     7.162000   -22.798622                                                    
 5126.0000
     7.180000   -23.375387                                                    
 5126.5000
     7.007000   -23.755529                                                    
 5127.0000
     6.960000   -23.758804                                                    
 5127.5000
     6.960000   -22.824839                                                    
 5128.0000
     6.960000   -20.937243                                                    
 5128.5000
     6.960000   -19.811567                                                    
 5129.0000
     6.959000   -19.559231                                                    
 5129.5000
     6.959000   -19.562508                                                    
 5130.0000
     7.290000   -19.859085                                                    
 5130.5000
     7.520000   -20.642305                                                    
 5131.0000
     7.861000   -22.397181                                                    
 5131.5000
     8.356000   -24.025887                                                    
 5132.0000
     8.864000   -24.868095                                                    
 5132.5000
     9.372000   -24.828770                                                    
 5133.0000
    10.210000   -23.431099                                                    
 5133.5000
    11.974000   -21.314106                                                    
 5134.0000
    13.880000   -20.357201                                                    
 5134.5000
    15.787000   -20.522692                                                    
 5135.0000
    17.694000   -24.037357                                                    
 5135.5000
    19.601000   -29.165983                                                    
 5136.0000
    21.507999   -34.292969                                                    
 5136.5000
    23.415001   -39.419956                                                    
 5137.0000
    25.322001   -44.548580                                                    
 5137.5000
    27.228001   -49.677204                                                    
 5138.0000
    28.899000   -54.804195                                                    
 5138.5000
    29.796000   -59.931183                                                    
 5139.0000
    29.966000   -63.755531                                                    
 5139.5000
    29.499001   -65.325249                                                    
 5140.0000
    28.976000   -65.713585                                                    
 5140.5000
    28.638000   -65.335075                                                    
 5141.0000
    29.405001   -62.903492                                                    
 5141.5000
    30.429001   -58.564636                                                    
 5142.0000
    30.837999   -54.225788                                                    
 5142.5000
    29.740999   -49.886940                                                    
 5143.0000
    25.530001   -45.549728                                                    
 5143.5000
    21.319000   -41.210880                                                    
 5144.0000
    17.108000   -36.872028                                                    
 5144.5000
    13.903000   -32.533176                                                    
 5145.0000
    12.184000   -28.194330                                                    
 5145.5000
    10.465000   -25.033588                                                    
 5146.0000
     9.146000   -23.468784                                                    
 5146.5000
     9.331000   -22.659346                                                    
 5147.0000
     9.149000   -22.361132                                                    
 5147.5000
     9.148000   -22.043255                                                    
 5148.0000
     9.282000   -22.474192                                                    
 5148.5000
     9.668000   -23.054234                                                    
 5149.0000
    10.480000   -23.594950                                                    
 5149.5000
    12.787000   -23.825985                                                    
 5150.0000
    17.174000   -24.433884                                                    
 5150.5000
    21.562000   -25.595608                                                    
 5151.0000
    25.950001   -26.795017                                                    
 5151.5000
    34.282001   -29.229885                                                    
 5152.0000
    45.820000   -32.639683                                                    
 5152.5000
    50.734001   -36.051121                                                    
 5153.0000
    51.979000   -39.462559                                                    
 5153.5000
    53.224998   -42.873997                                                    
 5154.0000
    53.914001   -46.287071                                                    
 5154.5000
    51.577000   -49.698505                                                    
 5155.0000
    48.969002   -52.041618                                                    
 5155.5000
    45.507000   -52.215302                                                    
 5156.0000
    42.043999   -51.620514                                                    
