~VERSION INFORMATION
 VERS.                 2.0:   CWLS Log Ascii Standard    
 WRAP.                 YES:   Multiple Lines per Depth   
~WELL INFORMATION
#MNEM.UNIT              DATA                DESCRIPTION OF MNEMONIC  
#---------              ----                -----------------------  
 STRT  .FT         4578.0000                :Top Depth  
 STOP  .FT         5960.0000                :Bottom Depth  
 STEP  .FT             .5000                :Increment  
 NULL  .          -99999.000                :Null Value  
 COMP  .  CITIES SERVICE OIL CO.            :Company   
 FLD   .  CAP YATES CONG.                   :Field  
 STAT  .  TEXAS                             :State  
 SRVC  .  SCHLUMBERGER                      :Service Company  
 WELL  .  ASHE C1                           :Well  
 UWI   .  424970137400                      :Unique Well ID  
~PARAMETER INFORMATION
#MNEM.UNIT        Value       Description                
#---------    -------------   -------------------------- 
 RUN   .                 1:   Run Number                 
 DATUM .FT        943.0000:   Datum                      
 AMST  .DEG.F      80.0000:   Annual Mean Surface Temp.  
 BHT   .DEG.F     128.0000:   Bottom Hole Temperature    
 TD    .FT       5947.0000:   Loggers Total Depth        
 BITSIZ.IN          8.7500:   Bit Size                   
 MW    .LB/USGAL    9.8000:   Mud Weight                 
 RM    .OHM-M       2.6000:   Mud Resistivity            
 RMMT  .DEG.F      85.0000:   Mud Resistivity Meas. Temp.
 RMF   .OHM-M       1.4000:   Mud Filtrate Resistivity   
 RMFMT .DEG.F     128.0000:   Mud Filtrate Res.Meas.Temp.
 RMC   .OHM-M       1.7000:   Mud Cake Resistivity       
 RMCMT .DEG.F     128.0000:   Mud Cake Res. Meas. Temp.  
 SALFM .PPM      150000.00:   Formation Water Salinity   
~CURVE INFORMATION
#MNEM.UNIT       API Code     Curve Description          
#---------    -------------   -------------------------- 
 DEPTH .FT                    : Depth                                   
 RILD  .OHMM                  : Deep Induction Resistivity              
 SP    .MV                    : Spontaneous Potential                   
~A Log Data Section - Number of Curves =     3
# ...
 4756.0000
    55.084000   -75.043427                                                    
 4756.5000
    54.998001   -67.071930                                                    
 4757.0000
    54.910999   -60.984760                                                    
 4757.5000
    54.825001   -57.414383                                                    
 4758.0000
    29.667999   -53.395050                                                    
 4758.5000
    24.396999   -45.590694                                                    
 4759.0000
    19.562000   -33.865311                                                    
 4759.5000
    15.414000   -32.679008                                                    
 4760.0000
    12.781000   -25.738159                                                    
 4760.5000
    12.436000   -19.423233                                                    
 4761.0000
    12.091000   -18.086185                                                    
 4761.5000
    11.746000   -17.157135                                                    
 4762.0000
    11.400000   -15.969193                                                    
 4762.5000
    11.172000   -14.448630                                                    
 4763.0000
    11.056000   -13.878418                                                    
 4763.5000
    10.943000   -13.601505                                                    
 4764.0000
    10.939000   -13.596590                                                    
 4764.5000
    10.939000   -13.319677                                                    
 4765.0000
    10.938000   -12.815006                                                    
 4765.5000
    10.938000   -12.808453                                                    
 4766.0000
    10.938000   -12.803536                                                    
 4766.5000
    10.839000   -12.796983                                                    
 4767.0000
    10.472000   -12.790429                                                    
 4767.5000
    10.377000   -12.787152                                                    
 4768.0000
    10.471000   -12.780598                                                    
 4768.5000
    10.471000   -12.223494                                                    
 4769.0000
    10.471000   -12.000653                                                    
 4769.5000
    10.470000   -11.994100                                                    
 4770.0000
    10.470000   -11.989183                                                    
 4770.5000
    10.389000   -11.984267                                                    
 4771.0000
    10.237000   -11.984267                                                    
 4771.5000
    10.160000   -12.374240                                                    
 4772.0000
     9.987000   -12.380795                                                    
 4772.5000
     9.887000   -12.002293                                                    
 4773.0000
     9.758000   -11.764704                                                    
 4773.5000
     9.654000   -11.631983                                                    
 4774.0000
     9.653000   -11.859740                                                    
 4774.5000
     9.653000   -12.411927                                                    
 4775.0000
     9.537000   -12.618382                                                    
 4775.5000
     9.536000   -12.810092                                                    
 4776.0000
     9.536000   -12.816646                                                    
 4776.5000
     9.536000   -12.823199                                                    
 4777.0000
     9.535000   -12.803536                                                    
 4777.5000
     9.302000   -12.716695                                                    
 4778.0000
     9.302000   -12.628214                                                    
 4778.5000
     9.534000   -12.541370                                                    
 4779.0000
     9.224000   -12.470913                                                    
 4779.5000
     9.185000   -12.197278                                                    
 4780.0000
     9.283000   -12.171062                                                    
 4780.5000
     8.912000   -12.488938                                                    
 4781.0000
     8.835000   -12.493853                                                    
 4781.5000
     8.799000   -12.272652                                                    
 4782.0000
     8.764000   -12.121905                                                    
 4782.5000
     8.803000   -12.128459                                                    
 4783.0000
     8.630000   -12.520071                                                    
 4783.5000
     8.601000   -12.708502                                                    
 4784.0000
     8.600000   -12.919873                                                    
 4784.5000
     8.600000   -12.924789                                                    
 4785.0000
     8.600000   -12.593805                                                    
 4785.5000
     8.733000   -12.551203                                                    
 4786.0000
     8.977000   -12.870717                                                    
 4786.5000
     9.271000   -13.059149                                                    
 4787.0000
    10.612000   -13.054233                                                    
 4787.5000
    11.953000   -12.921513                                                    
 4788.0000
    12.854000   -12.644598                                                    
 4788.5000
    14.264000   -12.646237                                                    
 4789.0000
    15.744000   -12.982138                                                    
 4789.5000
    17.169001   -13.023102                                                    
 4790.0000
    18.406000   -13.599867                                                    
 4790.5000
    18.672001   -14.563328                                                    
 4791.0000
    18.222000   -15.341634                                                    
 4791.5000
    17.042000   -16.105192                                                    
 4792.0000
    14.976000   -17.255445                                                    
 4792.5000
    13.191000   -17.668360                                                    
 4793.0000
    11.983000   -17.676550                                                    
 4793.5000
    10.839000   -17.614286                                                    
 4794.0000
    10.304000   -17.506142                                                    
 4794.5000
    10.041000   -17.397999                                                    
 4795.0000
     9.528000   -17.314434                                                    
 4795.5000
     9.870000   -17.609371                                                    
 4796.0000
     9.728000   -18.182859                                                    
 4796.5000
     9.637000   -18.482712                                                    
 4797.0000
     9.637000   -18.551531                                                    
 4797.5000
     9.636000   -19.125019                                                    
 4798.0000
     9.232000   -19.700146                                                    
 4798.5000
     8.709000   -20.273634                                                    
 4799.0000
     8.457000   -20.817629                                                    
 4799.5000
     8.284000   -21.030638                                                    
 4800.0000
     8.111000   -21.604128                                                    
