~VERSION INFORMATION
 VERS.                 2.0:   CWLS Log Ascii Standard    
 WRAP.                 YES:   Multiple Lines per Depth   
~WELL INFORMATION
#MNEM.UNIT              DATA                DESCRIPTION OF MNEMONIC  
#---------              ----                -----------------------  
 STRT  .FT         4578.0000                :Top Depth  
 STOP  .FT         5960.0000                :Bottom Depth  
 STEP  .FT             .5000                :Increment  
 NULL  .          -99999.000                :Null Value  
 COMP  .  CITIES SERVICE OIL CO.            :Company   
 FLD   .  CAP YATES CONG.                   :Field  
 STAT  .  TEXAS                             :State  
 SRVC  .  SCHLUMBERGER                      :Service Company  
 WELL  .  ASHE C1                           :Well  
 UWI   .  424970137400                      :Unique Well ID  
~PARAMETER INFORMATION
#MNEM.UNIT        Value       Description                
#---------    -------------   -------------------------- 
 RUN   .                 1:   Run Number                 
 DATUM .FT        943.0000:   Datum                      
 AMST  .DEG.F      80.0000:   Annual Mean Surface Temp.  
 BHT   .DEG.F     128.0000:   Bottom Hole Temperature    
 TD    .FT       5947.0000:   Loggers Total Depth        
 BITSIZ.IN          8.7500:   Bit Size                   
 MW    .LB/USGAL    9.8000:   Mud Weight                 
 RM    .OHM-M       2.6000:   Mud Resistivity            
 RMMT  .DEG.F      85.0000:   Mud Resistivity Meas. Temp.
 RMF   .OHM-M       1.4000:   Mud Filtrate Resistivity   
 RMFMT .DEG.F     128.0000:   Mud Filtrate Res.Meas.Temp.
 RMC   .OHM-M       1.7000:   Mud Cake Resistivity       
 RMCMT .DEG.F     128.0000:   Mud Cake Res. Meas. Temp.  
 SALFM .PPM      150000.00:   Formation Water Salinity   
~CURVE INFORMATION
#MNEM.UNIT       API Code     Curve Description          
#---------    -------------   -------------------------- 
 DEPTH .FT                    : Depth                                   
 RILD  .OHMM                  : Deep Induction Resistivity              
 SP    .MV                    : Spontaneous Potential                   
~A Log Data Section - Number of Curves =     3
# ...
 5557.0000
    13.346000   -22.198917                                                    
 5557.5000
    13.685000   -22.385710                                                    
 5558.0000
    13.857000   -22.708502                                                    
 5558.5000
    13.814000   -23.095200                                                    
 5559.0000
    13.362000   -23.337700                                                    
 5559.5000
    12.809000   -23.100111                                                    
 5560.0000
    11.766000   -23.101753                                                    
 5560.5000
    10.638000   -23.103390                                                    
 5561.0000
     9.819000   -23.105028                                                    
 5561.5000
     9.001000   -23.501554                                                    
 5562.0000
     8.182000   -24.078320                                                    
 5562.5000
     7.363000   -24.661640                                                    
 5563.0000
     7.016000   -25.618546                                                    
 5563.5000
     6.844000   -25.806978                                                    
 5564.0000
     6.822000   -26.188757                                                    
 5564.5000
     6.908000   -26.190397                                                    
 5565.0000
     6.937000   -25.808619                                                    
 5565.5000
     6.936000   -25.457970                                                    
 5566.0000
     6.801000   -25.195805                                                    
 5566.5000
     6.629000   -25.770931                                                    
 5567.0000
     6.446000   -28.002619                                                    
 5567.5000
     6.102000   -29.986891                                                    
 5568.0000
     5.531000   -30.988037                                                    
 5568.5000
     5.359000   -31.564802                                                    
 5569.0000
     5.188000   -32.706863                                                    
 5569.5000
     5.016000   -33.491726                                                    
 5570.0000
     4.954000   -33.508110                                                    
 5570.5000
     4.886000   -33.866951                                                    
 5571.0000
     4.953000   -34.055382                                                    
 5571.5000
     4.993000   -34.632145                                                    
 5572.0000
     5.163000   -33.998032                                                    
 5572.5000
     5.035000   -32.885464                                                    
 5573.0000
     4.951000   -31.227264                                                    
 5573.5000
     4.950000   -29.496967                                                    
 5574.0000
     4.950000   -27.763393                                                    
 5574.5000
     5.448000   -26.031460                                                    
 5575.0000
     5.926000   -24.307716                                                    
 5575.5000
     6.358000   -23.745697                                                    
 5576.0000
     6.697000   -23.545795                                                    
 5576.5000
     7.037000   -23.934130                                                    
 5577.0000
     7.152000   -24.291330                                                    
 5577.5000
     7.265000   -24.479763                                                    
 5578.0000
     6.993000   -25.054890                                                    
 5578.5000
     6.619000   -25.788954                                                    
 5579.0000
     6.063000   -26.595116                                                    
 5579.5000
     5.662000   -27.327543                                                    
 5580.0000
     5.272000   -27.786333                                                    
 5580.5000
     4.853000   -28.474520                                                    
 5581.0000
     4.682000   -29.285597                                                    
 5581.5000
     4.592000   -29.860723                                                    
 5582.0000
     4.592000   -30.099951                                                    
 5582.5000
     4.591000   -30.101587                                                    
 5583.0000
     4.640000   -29.785351                                                    
 5583.5000
     5.252000   -29.223331                                                    
 5584.0000
     6.066000   -28.097656                                                    
 5584.5000
     7.007000   -26.888412                                                    
 5585.0000
     7.949000   -25.774206                                                    
 5585.5000
     8.891000   -25.161396                                                    
 5586.0000
     9.832000   -25.738159                                                    
 5586.5000
    10.774000   -26.875305                                                    
 5587.0000
    11.395000   -28.826805                                                    
 5587.5000
    11.707000   -29.301983                                                    
 5588.0000
    11.794000   -28.969358                                                    
 5588.5000
    11.334000   -29.392099                                                    
 5589.0000
    10.486000   -29.741110                                                    
 5589.5000
     9.652000   -30.098312                                                    
 5590.0000
     8.818000   -29.336391                                                    
 5590.5000
     7.985000   -28.222185                                                    
 5591.0000
     7.151000   -28.782564                                                    
 5591.5000
     6.432000   -28.982466                                                    
 5592.0000
     6.089000   -29.369160                                                    
 5592.5000
     5.861000   -29.370800                                                    
 5593.0000
     5.858000   -29.374077                                                    
 5593.5000
     5.857000   -29.375717                                                    
 5594.0000
     5.902000   -28.854660                                                    
 5594.5000
     5.973000   -28.292641                                                    
 5595.0000
     5.972000   -27.460264                                                    
 5595.5000
     5.971000   -27.171881                                                    
 5596.0000
     6.087000   -27.081760                                                    
 5596.5000
     6.171000   -27.360312                                                    
 5597.0000
     6.202000   -27.548744                                                    
 5597.5000
     6.278000   -27.853514                                                    
 5598.0000
     6.434000   -27.471735                                                    
 5598.5000
     6.502000   -27.475010                                                    
 5599.0000
     6.665000   -27.093231                                                    
 5599.5000
     6.726000   -27.094872                                                    
 5600.0000
     6.974000   -26.305096                                                    
 5600.5000
     7.259000   -25.548090                                                    
 5601.0000
     7.580000   -24.073406                                                    
