~VERSION INFORMATION
 VERS.                 2.0:   CWLS Log Ascii Standard    
 WRAP.                 YES:   Multiple Lines per Depth   
~WELL INFORMATION
#MNEM.UNIT              DATA                DESCRIPTION OF MNEMONIC  
#---------              ----                -----------------------  
 STRT  .FT         4578.0000                :Top Depth  
 STOP  .FT         5960.0000                :Bottom Depth  
 STEP  .FT             .5000                :Increment  
 NULL  .          -99999.000                :Null Value  
 COMP  .  CITIES SERVICE OIL CO.            :Company   
 FLD   .  CAP YATES CONG.                   :Field  
 STAT  .  TEXAS                             :State  
 SRVC  .  SCHLUMBERGER                      :Service Company  
 WELL  .  ASHE C1                           :Well  
 UWI   .  424970137400                      :Unique Well ID  
~PARAMETER INFORMATION
#MNEM.UNIT        Value       Description                
#---------    -------------   -------------------------- 
 RUN   .                 1:   Run Number                 
 DATUM .FT        943.0000:   Datum                      
 AMST  .DEG.F      80.0000:   Annual Mean Surface Temp.  
 BHT   .DEG.F     128.0000:   Bottom Hole Temperature    
 TD    .FT       5947.0000:   Loggers Total Depth        
 BITSIZ.IN          8.7500:   Bit Size                   
 MW    .LB/USGAL    9.8000:   Mud Weight                 
 RM    .OHM-M       2.6000:   Mud Resistivity            
 RMMT  .DEG.F      85.0000:   Mud Resistivity Meas. Temp.
 RMF   .OHM-M       1.4000:   Mud Filtrate Resistivity   
 RMFMT .DEG.F     128.0000:   Mud Filtrate Res.Meas.Temp.
 RMC   .OHM-M       1.7000:   Mud Cake Resistivity       
 RMCMT .DEG.F     128.0000:   Mud Cake Res. Meas. Temp.  
 SALFM .PPM      150000.00:   Formation Water Salinity   
~CURVE INFORMATION
#MNEM.UNIT       API Code     Curve Description          
#---------    -------------   -------------------------- 
 DEPTH .FT                    : Depth                                   
 RILD  .OHMM                  : Deep Induction Resistivity              
 SP    .MV                    : Spontaneous Potential                   
~A Log Data Section - Number of Curves =     3
# ...
 5023.0000
     5.577000   -22.987055                                                    
 5023.5000
     5.568000   -22.243158                                                    
 5024.0000
     5.900000   -21.571358                                                    
 5024.5000
     6.071000   -21.412418                                                    
 5025.0000
     6.322000   -21.713911                                                    
 5025.5000
     6.528000   -22.570866                                                    
 5026.0000
     6.627000   -23.429459                                                    
 5026.5000
     6.752000   -24.097984                                                    
 5027.0000
     6.921000   -25.815172                                                    
 5027.5000
     7.091000   -27.743732                                                    
 5028.0000
     7.375000   -29.483860                                                    
 5028.5000
     7.544000   -29.875469                                                    
 5029.0000
     7.386000   -29.793543                                                    
 5029.5000
     7.213000   -29.513353                                                    
 5030.0000
     7.083000   -28.700638                                                    
 5030.5000
     7.178000   -27.653612                                                    
 5031.0000
     7.313000   -27.094872                                                    
 5031.5000
     7.400000   -26.536127                                                    
 5032.0000
     7.569000   -26.049482                                                    
 5032.5000
     7.738000   -25.800425                                                    
 5033.0000
     7.925000   -25.285925                                                    
 5033.5000
     8.367000   -24.628868                                                    
 5034.0000
     8.964000   -22.975586                                                    
 5034.5000
     9.883000   -21.160084                                                    
 5035.0000
    10.963000   -19.626411                                                    
 5035.5000
    12.079000   -18.767817                                                    
 5036.0000
    12.627000   -18.769457                                                    
 5036.5000
    12.470000   -18.771093                                                    
 5037.0000
    11.855000   -18.772734                                                    
 5037.5000
    10.783000   -18.936586                                                    
 5038.0000
    10.130000   -19.814844                                                    
 5038.5000
     9.478000   -21.397671                                                    
 5039.0000
     9.241000   -22.892019                                                    
 5039.5000
     9.103000   -23.390133                                                    
 5040.0000
     9.001000   -22.893656                                                    
 5040.5000
     8.591000   -21.030638                                                    
 5041.0000
     8.381000   -20.324429                                                    
 5041.5000
     8.684000   -20.327705                                                    
 5042.0000
     8.683000   -21.284613                                                    
 5042.5000
     8.682000   -21.481237                                                    
 5043.0000
     8.741000   -21.867933                                                    
 5043.5000
     8.796000   -21.871210                                                    
 5044.0000
     8.597000   -21.065048                                                    
 5044.5000
     8.338000   -20.024576                                                    
 5045.0000
     8.211000   -19.955759                                                    
 5045.5000
     8.106000   -19.957396                                                    
 5046.0000
     7.933000   -19.959036                                                    
 5046.5000
     7.760000   -21.065048                                                    
 5047.0000
     7.741000   -21.884317                                                    
 5047.5000
     7.740000   -22.148121                                                    
 5048.0000
     7.739000   -21.887594                                                    
 5048.5000
     7.738000   -21.653282                                                    
 5049.0000
     7.760000   -21.124035                                                    
 5049.5000
     7.852000   -20.719316                                                    
 5050.0000
     8.113000   -19.981976                                                    
 5050.5000
     8.384000   -19.208584                                                    
 5051.0000
     8.980000   -19.210224                                                    
 5051.5000
     9.652000   -19.059479                                                    
 5052.0000
    10.490000   -18.831720                                                    
 5052.5000
    11.360000   -18.969358                                                    
 5053.0000
    12.595000   -19.218414                                                    
 5053.5000
    13.457000   -19.097164                                                    
 5054.0000
    13.627000   -18.838274                                                    
 5054.5000
    13.590000   -18.841551                                                    
 5055.0000
    12.437000   -18.843189                                                    
 5055.5000
    11.285000   -18.844828                                                    
 5056.0000
    10.132000   -18.846468                                                    
 5056.5000
     8.980000   -19.310175                                                    
 5057.0000
     7.827000   -20.158936                                                    
 5057.5000
     7.717000   -21.712271                                                    
 5058.0000
     7.716000   -22.310337                                                    
 5058.5000
     7.598000   -22.236603                                                    
 5059.0000
     7.688000   -21.674585                                                    
 5059.5000
     8.061000   -20.688185                                                    
 5060.0000
     8.553000   -20.014744                                                    
 5060.5000
     7.567000   -20.016384                                                    
 5061.0000
     7.141000   -20.440765                                                    
 5061.5000
     6.986000   -20.802881                                                    
 5062.0000
     6.892000   -21.173193                                                    
 5062.5000
     6.891000   -21.953136                                                    
 5063.0000
     6.890000   -22.330000                                                    
 5063.5000
     6.889000   -22.331638                                                    
 5064.0000
     6.817000   -22.333277                                                    
 5064.5000
     6.865000   -22.334915                                                    
 5065.0000
     6.993000   -22.336555                                                    
 5065.5000
     7.126000   -22.339832                                                    
 5066.0000
     7.534000   -22.341469                                                    
 5066.5000
     8.071000   -22.008846                                                    
 5067.0000
     8.607000   -21.961329                                                    
