~VERSION INFORMATION
 VERS.                 2.0:   CWLS Log Ascii Standard    
 WRAP.                 YES:   Multiple Lines per Depth   
~WELL INFORMATION
#MNEM.UNIT              DATA                DESCRIPTION OF MNEMONIC  
#---------              ----                -----------------------  
 STRT  .FT         4578.0000                :Top Depth  
 STOP  .FT         5960.0000                :Bottom Depth  
 STEP  .FT             .5000                :Increment  
 NULL  .          -99999.000                :Null Value  
 COMP  .  CITIES SERVICE OIL CO.            :Company   
 FLD   .  CAP YATES CONG.                   :Field  
 STAT  .  TEXAS                             :State  
 SRVC  .  SCHLUMBERGER                      :Service Company  
 WELL  .  ASHE C1                           :Well  
 UWI   .  424970137400                      :Unique Well ID  
~PARAMETER INFORMATION
#MNEM.UNIT        Value       Description                
#---------    -------------   -------------------------- 
 RUN   .                 1:   Run Number                 
 DATUM .FT        943.0000:   Datum                      
 AMST  .DEG.F      80.0000:   Annual Mean Surface Temp.  
 BHT   .DEG.F     128.0000:   Bottom Hole Temperature    
 TD    .FT       5947.0000:   Loggers Total Depth        
 BITSIZ.IN          8.7500:   Bit Size                   
 MW    .LB/USGAL    9.8000:   Mud Weight                 
 RM    .OHM-M       2.6000:   Mud Resistivity            
 RMMT  .DEG.F      85.0000:   Mud Resistivity Meas. Temp.
 RMF   .OHM-M       1.4000:   Mud Filtrate Resistivity   
 RMFMT .DEG.F     128.0000:   Mud Filtrate Res.Meas.Temp.
 RMC   .OHM-M       1.7000:   Mud Cake Resistivity       
 RMCMT .DEG.F     128.0000:   Mud Cake Res. Meas. Temp.  
 SALFM .PPM      150000.00:   Formation Water Salinity   
~CURVE INFORMATION
#MNEM.UNIT       API Code     Curve Description          
#---------    -------------   -------------------------- 
 DEPTH .FT                    : Depth                                   
 RILD  .OHMM                  : Deep Induction Resistivity              
 SP    .MV                    : Spontaneous Potential                   
~A Log Data Section - Number of Curves =     3
# ...
 5913.0000
    44.938999   -15.634933                                                    
 5913.5000
    44.298000   -15.636570                                                    
 5914.0000
    43.779999   -15.677534                                                    
 5914.5000
    43.009998   -15.964277                                                    
 5915.0000
    42.306000   -16.026543                                                    
 5915.5000
    41.603001   -16.028181                                                    
 5916.0000
    40.715000   -15.982303                                                    
 5916.5000
    40.233002   -15.648040                                                    
 5917.0000
    39.751999   -15.266260                                                    
 5917.5000
    39.530998   -15.267900                                                    
 5918.0000
    39.596001   -15.269537                                                    
 5918.5000
    39.854000   -15.471078                                                    
 5919.0000
    40.028000   -16.042927                                                    
 5919.5000
    40.203999   -15.857773                                                    
 5920.0000
    40.403999   -15.661149                                                    
 5920.5000
    40.514000   -15.662786                                                    
 5921.0000
    40.652000   -15.315416                                                    
 5921.5000
    41.028000   -14.899228                                                    
 5922.0000
    41.056999   -14.574798                                                    
 5922.5000
    40.737999   -14.519087                                                    
 5923.0000
    40.595001   -14.520725                                                    
 5923.5000
    40.660999   -14.522365                                                    
 5924.0000
    41.195000   -14.525641                                                    
 5924.5000
    41.370998   -14.527279                                                    
 5925.0000
    41.308998   -14.250367                                                    
 5925.5000
    41.251999   -14.147140                                                    
 5926.0000
    41.417999   -14.148777                                                    
 5926.5000
    41.875999   -14.150416                                                    
 5927.0000
    42.362000   -14.401113                                                    
 5927.5000
    42.166000   -14.538749                                                    
 5928.0000
    41.709000   -14.540388                                                    
 5928.5000
    41.104000   -14.542026                                                    
 5929.0000
    40.852001   -14.327378                                                    
 5929.5000
    41.265999   -14.163524                                                    
 5930.0000
    41.808998   -14.165163                                                    
 5930.5000
    42.580002   -14.166802                                                    
 5931.0000
    43.001999   -14.551858                                                    
 5931.5000
    43.424999   -14.553497                                                    
 5932.0000
    43.848000   -14.384727                                                    
 5932.5000
    44.714001   -14.174994                                                    
 5933.0000
    45.323002   -14.024248                                                    
 5933.5000
    45.733002   -13.793214                                                    
 5934.0000
    45.833000   -13.794853                                                    
 5934.5000
    45.728001   -13.796491                                                    
 5935.0000
    46.047001   -13.799769                                                    
 5935.5000
    46.299999   -13.501555                                                    
 5936.0000
    45.990002   -13.319677                                                    
 5936.5000
    45.847000   -13.037848                                                    
 5937.0000
    46.004002   -13.039486                                                    
 5937.5000
    45.595001   -13.041125                                                    
 5938.0000
    45.242001   -13.044402                                                    
 5938.5000
    45.004002   -12.796983                                                    
 5939.0000
    45.171001   -12.279205                                                    
 5939.5000
    45.237999   -12.280844                                                    
 5940.0000
    45.000000   -12.665900                                                    
 5940.5000
    45.000000   -12.669177                                                    
 5941.0000
    44.675999   -12.670816                                                    
 5941.5000
    44.323002   -12.474192                                                    
 5942.0000
    44.323002   -12.290674                                                    
 5942.5000
    44.403999   -12.675731                                                    
 5943.0000
    44.370998   -12.677370                                                    
 5943.5000
    44.375999   -12.511878                                                    
 5944.0000
    44.728001   -11.951497                                                    
 5944.5000
    45.514000   -11.915449                                                    
 5945.0000
    46.999001   -11.753234                                                    
 5945.5000
    48.423000   -11.535309                                                    
 5946.0000
    49.883999   -11.538586                                                    
 5946.5000
    49.916000   -11.540224                                                    
 5947.0000
    49.948002   -11.541862                                                    
 5947.5000
    49.980000   -11.543501                                                    
 5948.0000
    50.012001   -11.545139                                                    
 5948.5000
    50.043999   -11.546779                                                    
 5949.0000
    50.076000   -11.550056                                                    
 5949.5000
    50.108002   -11.551694                                                    
 5950.0000
    50.118999   -11.553332                                                    
 5950.5000
    50.118999   -11.554971                                                    
 5951.0000
    50.080002   -11.556609                                                    
 5951.5000
    50.021999   -11.559886                                                    
 5952.0000
    50.000000   -11.561525                                                    
 5952.5000
    49.880001   -11.563163                                                    
 5953.0000
    49.880001   -11.564802                                                    
 5953.5000
    49.880001   -11.566440                                                    
 5954.0000
    49.880001   -11.568079                                                    
 5954.5000
    49.880001   -11.571356                                                    
 5955.0000
    49.880001   -11.572995                                                    
 5955.5000
    49.880001   -11.574633                                                    
 5956.0000
    49.880001   -11.758150                                                    
 5956.5000
    50.000000   -11.949859                                                    
 5957.0000
    49.914001   -11.964605                                                    
