~VERSION INFORMATION
 VERS.                 2.0:   CWLS Log Ascii Standard    
 WRAP.                 YES:   Multiple Lines per Depth   
~WELL INFORMATION
#MNEM.UNIT              DATA                DESCRIPTION OF MNEMONIC  
#---------              ----                -----------------------  
 STRT  .FT         4578.0000                :Top Depth  
 STOP  .FT         5960.0000                :Bottom Depth  
 STEP  .FT             .5000                :Increment  
 NULL  .          -99999.000                :Null Value  
 COMP  .  CITIES SERVICE OIL CO.            :Company   
 FLD   .  CAP YATES CONG.                   :Field  
 STAT  .  TEXAS                             :State  
 SRVC  .  SCHLUMBERGER                      :Service Company  
 WELL  .  ASHE C1                           :Well  
 UWI   .  424970137400                      :Unique Well ID  
~PARAMETER INFORMATION
#MNEM.UNIT        Value       Description                
#---------    -------------   -------------------------- 
 RUN   .                 1:   Run Number                 
 DATUM .FT        943.0000:   Datum                      
 AMST  .DEG.F      80.0000:   Annual Mean Surface Temp.  
 BHT   .DEG.F     128.0000:   Bottom Hole Temperature    
 TD    .FT       5947.0000:   Loggers Total Depth        
 BITSIZ.IN          8.7500:   Bit Size                   
 MW    .LB/USGAL    9.8000:   Mud Weight                 
 RM    .OHM-M       2.6000:   Mud Resistivity            
 RMMT  .DEG.F      85.0000:   Mud Resistivity Meas. Temp.
 RMF   .OHM-M       1.4000:   Mud Filtrate Resistivity   
 RMFMT .DEG.F     128.0000:   Mud Filtrate Res.Meas.Temp.
 RMC   .OHM-M       1.7000:   Mud Cake Resistivity       
 RMCMT .DEG.F     128.0000:   Mud Cake Res. Meas. Temp.  
 SALFM .PPM      150000.00:   Formation Water Salinity   
~CURVE INFORMATION
#MNEM.UNIT       API Code     Curve Description          
#---------    -------------   -------------------------- 
 DEPTH .FT                    : Depth                                   
 RILD  .OHMM                  : Deep Induction Resistivity              
 SP    .MV                    : Spontaneous Potential                   
~A Log Data Section - Number of Curves =     3
 4578.0000
     5.475000  -99999.0000                                                    
 4578.5000
     5.475000  -99999.0000                                                    
 4579.0000
     5.426000  -99999.0000                                                    
 4579.5000
     5.358000  -99999.0000                                                    
 4580.0000
     5.358000  -99999.0000                                                    
 4580.5000
     5.254000  -99999.0000                                                    
 4581.0000
     5.357000  -99999.0000                                                    
 4581.5000
     5.357000  -99999.0000                                                    
 4582.0000
     5.357000  -99999.0000                                                    
 4582.5000
     5.455000  -99999.0000                                                    
 4583.0000
     5.395000  -99999.0000                                                    
 4583.5000
     5.472000  -99999.0000                                                    
 4584.0000
     5.704000  -99999.0000                                                    
 4584.5000
     5.704000  -99999.0000                                                    
 4585.0000
     5.820000  -99999.0000                                                    
 4585.5000
     5.911000  -99999.0000                                                    
 4586.0000
     5.935000  -99999.0000                                                    
 4586.5000
     5.935000  -99999.0000                                                    
 4587.0000
     5.935000  -99999.0000                                                    
 4587.5000
     5.934000  -99999.0000                                                    
 4588.0000
     5.906000  -99999.0000                                                    
 4588.5000
     5.902000   -22.302145                                                    
 4589.0000
     5.959000   -22.554480                                                    
 4589.5000
     6.049000   -23.136162                                                    
 4590.0000
     5.933000   -23.472061                                                    
 4590.5000
     5.933000   -23.475338                                                    
 4591.0000
     5.932000   -23.480253                                                    
 4591.5000
     5.932000   -23.481894                                                    
 4592.0000
     5.815000   -23.257412                                                    
 4592.5000
     5.815000   -22.685562                                                    
 4593.0000
     5.815000   -22.115353                                                    
 4593.5000
     5.888000   -21.944944                                                    
 4594.0000
     5.930000   -21.949860                                                    
 4594.5000
     5.930000   -21.953136                                                    
 4595.0000
     5.930000   -22.154676                                                    
 4595.5000
     5.929000   -22.737997                                                    
 4596.0000
     5.929000   -23.319677                                                    
 4596.5000
     5.862000   -23.514662                                                    
 4597.0000
     5.812000   -23.516302                                                    
 4597.5000
     5.812000   -23.519579                                                    
 4598.0000
     5.811000   -23.522858                                                    
 4598.5000
     5.811000   -23.339342                                                    
 4599.0000
     5.808000   -23.141077                                                    
 4599.5000
     5.694000   -23.145994                                                    
 4600.0000
     5.694000   -22.760937                                                    
 4600.5000
     5.694000   -22.764214                                                    
 4601.0000
     5.807000   -22.921513                                                    
 4601.5000
     5.809000   -23.157463                                                    
 4602.0000
     5.809000   -22.628214                                                    
 4602.5000
     5.861000   -22.058002                                                    
 4603.0000
     5.925000   -21.292807                                                    
 4603.5000
     5.924000   -19.873831                                                    
 4604.0000
     5.924000   -19.575617                                                    
 4604.5000
     5.924000   -19.305258                                                    
 4605.0000
     5.923000   -19.310175                                                    
 4605.5000
     6.039000   -19.313452                                                    
 4606.0000
     6.141000   -19.316729                                                    
 4606.5000
     6.271000   -19.318367                                                    
 4607.0000
     6.471000   -19.321644                                                    
 4607.5000
     6.503000   -19.326559                                                    
 4608.0000
     6.600000   -19.410124                                                    
 4608.5000
     6.716000   -19.991806                                                    
 4609.0000
     6.629000   -20.342453                                                    
 4609.5000
     6.394000   -21.546780                                                    
 4610.0000
     6.060000   -23.984924                                                    
 4610.5000
     5.920000   -26.545959                                                    
 4611.0000
     5.919000   -28.849745                                                    
 4611.5000
     5.793000   -29.713255                                                    
 4612.0000
     5.365000   -29.016874                                                    
 4612.5000
     5.192000   -27.402916                                                    
 4613.0000
     5.104000   -26.454201                                                    
 4613.5000
     5.077000   -25.679173                                                    
 4614.0000
     4.987000   -25.107323                                                    
 4614.5000
     4.987000   -24.661640                                                    
 4615.0000
     4.987000   -24.301163                                                    
 4615.5000
     4.986000   -23.396690                                                    
 4616.0000
     5.065000   -22.862524                                                    
 4616.5000
     5.218000   -22.865801                                                    
 4617.0000
     5.218000   -23.314760                                                    
 4617.5000
     5.218000   -24.256922                                                    
 4618.0000
     5.217000   -24.815662                                                    
 4618.5000
     5.217000   -24.964769                                                    
 4619.0000
     5.217000   -25.112238                                                    
 4619.5000
     5.216000   -25.205637                                                    
 4620.0000
     5.216000   -25.208912                                                    
 4620.5000
     5.332000   -25.007372                                                    
 4621.0000
     5.332000   -24.566605                                                    
 4621.5000
     5.331000   -24.188103                                                    
 4622.0000
     5.266000   -23.306570                                                    
