~VERSION INFORMATION
 VERS.                 2.0:   CWLS Log Ascii Standard    
 WRAP.                 YES:   Multiple Lines per Depth   
~WELL INFORMATION
#MNEM.UNIT              DATA                DESCRIPTION OF MNEMONIC  
#---------              ----                -----------------------  
 STRT  .FT         4578.0000                :Top Depth  
 STOP  .FT         5960.0000                :Bottom Depth  
 STEP  .FT             .5000                :Increment  
 NULL  .          -99999.000                :Null Value  
 COMP  .  CITIES SERVICE OIL CO.            :Company   
 FLD   .  CAP YATES CONG.                   :Field  
 STAT  .  TEXAS                             :State  
 SRVC  .  SCHLUMBERGER                      :Service Company  
 WELL  .  ASHE C1                           :Well  
 UWI   .  424970137400                      :Unique Well ID  
~PARAMETER INFORMATION
#MNEM.UNIT        Value       Description                
#---------    -------------   -------------------------- 
 RUN   .                 1:   Run Number                 
 DATUM .FT        943.0000:   Datum                      
 AMST  .DEG.F      80.0000:   Annual Mean Surface Temp.  
 BHT   .DEG.F     128.0000:   Bottom Hole Temperature    
 TD    .FT       5947.0000:   Loggers Total Depth        
 BITSIZ.IN          8.7500:   Bit Size                   
 MW    .LB/USGAL    9.8000:   Mud Weight                 
 RM    .OHM-M       2.6000:   Mud Resistivity            
 RMMT  .DEG.F      85.0000:   Mud Resistivity Meas. Temp.
 RMF   .OHM-M       1.4000:   Mud Filtrate Resistivity   
 RMFMT .DEG.F     128.0000:   Mud Filtrate Res.Meas.Temp.
 RMC   .OHM-M       1.7000:   Mud Cake Resistivity       
 RMCMT .DEG.F     128.0000:   Mud Cake Res. Meas. Temp.  
 SALFM .PPM      150000.00:   Formation Water Salinity   
~CURVE INFORMATION
#MNEM.UNIT       API Code     Curve Description          
#---------    -------------   -------------------------- 
 DEPTH .FT                    : Depth                                   
 RILD  .OHMM                  : Deep Induction Resistivity              
 SP    .MV                    : Spontaneous Potential                   
~A Log Data Section - Number of Curves =     3
# ...
 5379.0000
    11.964000   -17.407831                                                    
 5379.5000
    12.843000   -17.409468                                                    
 5380.0000
    13.723000   -17.411108                                                    
 5380.5000
    14.602000   -17.797802                                                    
 5381.0000
    15.481000   -18.041945                                                    
 5381.5000
    16.360001   -18.618711                                                    
 5382.0000
    17.239000   -19.193838                                                    
 5382.5000
    17.861000   -19.341307                                                    
 5383.0000
    16.987000   -19.344584                                                    
 5383.5000
    15.260000   -19.274126                                                    
 5384.0000
    13.567000   -17.999344                                                    
 5384.5000
    12.095000   -17.438963                                                    
 5385.0000
    11.541000   -16.662296                                                    
 5385.5000
    11.504000   -16.663933                                                    
 5386.0000
    12.486000   -16.667212                                                    
 5386.5000
    13.605000   -16.668850                                                    
 5387.0000
    15.083000   -16.670488                                                    
 5387.5000
    16.561001   -16.672127                                                    
 5388.0000
    18.039000   -16.673765                                                    
 5388.5000
    19.516001   -16.986727                                                    
 5389.0000
    20.993999   -17.561853                                                    
 5389.5000
    22.472000   -17.832212                                                    
 5390.0000
    22.832001   -17.450432                                                    
 5390.5000
    22.973000   -17.452070                                                    
 5391.0000
    23.705999   -17.453709                                                    
 5391.5000
    27.048000   -17.456985                                                    
 5392.0000
    32.573002   -17.527443                                                    
 5392.5000
    38.098000   -18.102570                                                    
 5393.0000
    36.879002   -19.205307                                                    
 5393.5000
    36.117001   -20.416187                                                    
 5394.0000
    31.964001   -21.065048                                                    
 5394.5000
    27.705000   -21.692608                                                    
 5395.0000
    23.445000   -21.514008                                                    
 5395.5000
    19.186001   -20.311321                                                    
 5396.0000
    15.144000   -20.162214                                                    
 5396.5000
    14.273000   -20.381777                                                    
 5397.0000
    13.402000   -20.570210                                                    
 5397.5000
    12.530000   -20.729147                                                    
 5398.0000
    10.940000   -20.170406                                                    
 5398.5000
     9.981000   -20.172045                                                    
 5399.0000
     9.427000   -19.806650                                                    
 5399.5000
     8.654000   -20.176960                                                    
 5400.0000
     8.251000   -20.178598                                                    
 5400.5000
     7.799000   -20.180239                                                    
 5401.0000
     7.653000   -19.845976                                                    
 5401.5000
     7.412000   -19.798458                                                    
 5402.0000
     7.191000   -19.800097                                                    
 5402.5000
     7.019000   -19.924625                                                    
 5403.0000
     6.730000   -20.190069                                                    
 5403.5000
     6.493000   -20.301489                                                    
 5404.0000
     6.268000   -20.576763                                                    
 5404.5000
     6.155000   -20.676714                                                    
 5405.0000
     6.039000   -20.965097                                                    
 5405.5000
     5.922000   -21.735210                                                    
 5406.0000
     5.809000   -21.463213                                                    
 5406.5000
     5.637000   -21.738487                                                    
 5407.0000
     5.464000   -22.274290                                                    
 5407.5000
     5.457000   -22.510241                                                    
 5408.0000
     5.456000   -22.513517                                                    
 5408.5000
     5.340000   -22.898573                                                    
 5409.0000
     5.238000   -23.144352                                                    
 5409.5000
     5.223000   -23.721121                                                    
 5410.0000
     5.125000   -24.055380                                                    
 5410.5000
     4.990000   -24.058659                                                    
 5411.0000
     4.896000   -24.286415                                                    
 5411.5000
     4.840000   -24.446991                                                    
 5412.0000
     4.757000   -24.448629                                                    
 5412.5000
     4.641000   -24.450270                                                    
 5413.0000
     4.724000   -24.451906                                                    
 5413.5000
     4.870000   -24.455185                                                    
 5414.0000
     4.710000   -24.456823                                                    
 5414.5000
     4.638000   -24.825495                                                    
 5415.0000
     4.637000   -25.226934                                                    
 5415.5000
     4.637000   -25.589054                                                    
 5416.0000
     4.636000   -25.779123                                                    
 5416.5000
     4.520000   -26.354250                                                    
 5417.0000
     4.529000   -26.542685                                                    
 5417.5000
     4.552000   -27.117811                                                    
 5418.0000
     4.576000   -27.304602                                                    
 5418.5000
     4.600000   -27.545469                                                    
 5419.0000
     4.624000   -27.548744                                                    
 5419.5000
     4.631000   -27.235783                                                    
 5420.0000
     5.240000   -26.675404                                                    
 5420.5000
     4.870000   -26.113384                                                    
 5421.0000
     4.697000   -26.018349                                                    
 5421.5000
     4.525000   -25.752907                                                    
 5422.0000
     4.380000   -25.254791                                                    
 5422.5000
     4.464000   -25.010649                                                    
 5423.0000
     4.511000   -24.874649                                                    
